"ID","YearStart","YearEnd","Description","LocationAbbr","LocationDesc","DataSource","Class","Topic","Question","Response","Data_Value_Unit","DataValueTypeId","Data_Value_Type","Data_Value","Data_Value_Footnote_Symbol","Data_Value_Footnote","Low_Confidence_Limit","High_Confidence_Limit","Sample_Size","GeoLocation_Lat","GeoLocation_Long","ClassId","TopicId","QuestionId","ResponseId","StratficationCategory1","StratificationCategoryId1","Stratification1","StratificationId1","StratificationCategory2","StratificationCategoryId2","Stratification2","StratificationId2","StratificationCategory3","StratificationCategoryId3","Stratification3","StratificationId3","LocationDisplayOrder","FootnoteSymbol","FootnoteText","URL","FootnoteHeading"
"970","2011","2011","2011","US","National","BRFSS","Obesity / Weight Status","Obesity / Weight Status","Percent of adults aged 18 years and older who have obesity †","","","VALUE","Value","28.4","","","27.7","29.1","64,688","","","OWS","OWS1","Q036","","Income","INC","$50,000 - $74,999","INC5075","","","","","","","","","0","","","",""
"37269","2011","2011","2011","AL","Alabama","BRFSS","Obesity / Weight Status","Obesity / Weight Status","Percent of adults aged 18 years and older who have obesity †","","","VALUE","Value","34.1","","","29.7","38.8","785","32.840571122","-86.631860762","OWS","OWS1","Q036","","Income","INC","$50,000 - $74,999","INC5075","","","","","","","","","1","","","",""
"28100","2011","2011","2011","AK","Alaska","BRFSS","Obesity / Weight Status","Obesity / Weight Status","Percent of adults aged 18 years and older who have obesity †","","","VALUE","Value","27.8","","","23.3","32.9","524","64.845079957001","-147.722059036","OWS","OWS1","Q036","","Income","INC","$50,000 - $74,999","INC5075","","","","","","","","","2","","","",""
"22723","2011","2011","2011","AZ","Arizona","BRFSS","Obesity / Weight Status","Obesity / Weight Status","Percent of adults aged 18 years and older who have obesity †","","","VALUE","Value","25.1","","","20.2","30.7","830","34.86597028","-111.763811277","OWS","OWS1","Q036","","Income","INC","$50,000 - $74,999","INC5075","","","","","","","","","4","","","",""
"31286","2011","2011","2011","AR","Arkansas","BRFSS","Obesity / Weight Status","Obesity / Weight Status","Percent of adults aged 18 years and older who have obesity †","","","VALUE","Value","30.6","","","25.2","36.7","528","34.748650124","-92.274490743","OWS","OWS1","Q036","","Income","INC","$50,000 - $74,999","INC5075","","","","","","","","","5","","","",""
"8852","2011","2011","2011","CA","California","BRFSS","Obesity / Weight Status","Obesity / Weight Status","Percent of adults aged 18 years and older who have obesity †","","","VALUE","Value","24.3","","","21.9","26.9","2,263","37.638640123","-120.999999538","OWS","OWS1","Q036","","Income","INC","$50,000 - $74,999","INC5075","","","","","","","","","6","","","",""
"13781","2011","2011","2011","CO","Colorado","BRFSS","Obesity / Weight Status","Obesity / Weight Status","Percent of adults aged 18 years and older who have obesity †","","","VALUE","Value","19.5","","","17.3","21.9","1,968","38.843840757","-106.133610921","OWS","OWS1","Q036","","Income","INC","$50,000 - $74,999","INC5075","","","","","","","","","8","","","",""
"7951","2011","2011","2011","CT","Connecticut","BRFSS","Obesity / Weight Status","Obesity / Weight Status","Percent of adults aged 18 years and older who have obesity †","","","VALUE","Value","23.2","","","19.7","27.1","850","41.56266102","-72.649840952","OWS","OWS1","Q036","","Income","INC","$50,000 - $74,999","INC5075","","","","","","","","","9","","","",""
"6288","2011","2011","2011","DE","Delaware","BRFSS","Obesity / Weight Status","Obesity / Weight Status","Percent of adults aged 18 years and older who have obesity †","","","VALUE","Value","26.4","","","22.3","30.9","684","39.008830667","-75.577741168","OWS","OWS1","Q036","","Income","INC","$50,000 - $74,999","INC5075","","","","","","","","","10","","","",""
"17307","2011","2011","2011","DC","District of Columbia","BRFSS","Obesity / Weight Status","Obesity / Weight Status","Percent of adults aged 18 years and older who have obesity †","","","VALUE","Value","20.3","","","15.8","25.6","475","38.890371385","-77.031961127","OWS","OWS1","Q036","","Income","INC","$50,000 - $74,999","INC5075","","","","","","","","","11","","","",""
"10367","2011","2011","2011","FL","Florida","BRFSS","Obesity / Weight Status","Obesity / Weight Status","Percent of adults aged 18 years and older who have obesity †","","","VALUE","Value","26.5","","","23.3","29.9","1,495","28.932040377","-81.928960539","OWS","OWS1","Q036","","Income","INC","$50,000 - $74,999","INC5075","","","","","","","","","12","","","",""
"35687","2011","2011","2011","GA","Georgia","BRFSS","Obesity / Weight Status","Obesity / Weight Status","Percent of adults aged 18 years and older who have obesity †","","","VALUE","Value","31.2","","","27.6","35.0","1,178","32.839681093","-83.627580346","OWS","OWS1","Q036","","Income","INC","$50,000 - $74,999","INC5075","","","","","","","","","13","","","",""
"21194","2011","2011","2011","HI","Hawaii","BRFSS","Obesity / Weight Status","Obesity / Weight Status","Percent of adults aged 18 years and older who have obesity †","","","VALUE","Value","28.2","","","23.9","32.9","1,187","21.304850435","-157.857749403","OWS","OWS1","Q036","","Income","INC","$50,000 - $74,999","INC5075","","","","","","","","","15","","","",""
"26431","2011","2011","2011","ID","Idaho","BRFSS","Obesity / Weight Status","Obesity / Weight Status","Percent of adults aged 18 years and older who have obesity †","","","VALUE","Value","28.9","","","24.6","33.6","843","43.682630005","-114.363730042","OWS","OWS1","Q036","","Income","INC","$50,000 - $74,999","INC5075","","","","","","","","","16","","","",""
"4309","2011","2011","2011","IL","Illinois","BRFSS","Obesity / Weight Status","Obesity / Weight Status","Percent of adults aged 18 years and older who have obesity †","","","VALUE","Value","28.1","","","23.8","32.8","892","40.485010283","-88.997710178","OWS","OWS1","Q036","","Income","INC","$50,000 - $74,999","INC5075","","","","","","","","","17","","","",""
"30461","2011","2011","2011","IN","Indiana","BRFSS","Obesity / Weight Status","Obesity / Weight Status","Percent of adults aged 18 years and older who have obesity †","","","VALUE","Value","32.0","","","28.4","35.9","1,035","39.766910452","-86.149960194","OWS","OWS1","Q036","","Income","INC","$50,000 - $74,999","INC5075","","","","","","","","","18","","","",""
"22222","2011","2011","2011","IA","Iowa","BRFSS","Obesity / Weight Status","Obesity / Weight Status","Percent of adults aged 18 years and older who have obesity †","","","VALUE","Value","33.3","","","30.0","36.8","1,012","42.469400913","-93.816490556","OWS","OWS1","Q036","","Income","INC","$50,000 - $74,999","INC5075","","","","","","","","","19","","","",""
"1447","2011","2011","2011","KS","Kansas","BRFSS","Obesity / Weight Status","Obesity / Weight Status","Percent of adults aged 18 years and older who have obesity †","","","VALUE","Value","31.0","","","29.0","33.1","2,958","38.3477403","-98.200781227","OWS","OWS1","Q036","","Income","INC","$50,000 - $74,999","INC5075","","","","","","","","","20","","","",""
"2463","2011","2011","2011","KY","Kentucky","BRFSS","Obesity / Weight Status","Obesity / Weight Status","Percent of adults aged 18 years and older who have obesity †","","","VALUE","Value","34.4","","","30.1","38.9","1,139","37.645970271","-84.774971048","OWS","OWS1","Q036","","Income","INC","$50,000 - $74,999","INC5075","","","","","","","","","21","","","",""
"37840","2011","2011","2011","LA","Louisiana","BRFSS","Obesity / Weight Status","Obesity / Weight Status","Percent of adults aged 18 years and older who have obesity †","","","VALUE","Value","36.8","","","32.5","41.2","1,112","31.312660644","-92.445680071","OWS","OWS1","Q036","","Income","INC","$50,000 - $74,999","INC5075","","","","","","","","","22","","","",""
"4132","2011","2011","2011","ME","Maine","BRFSS","Obesity / Weight Status","Obesity / Weight Status","Percent of adults aged 18 years and older who have obesity †","","","VALUE","Value","25.8","","","23.4","28.3","1,882","45.254228894001","-68.985031336","OWS","OWS1","Q036","","Income","INC","$50,000 - $74,999","INC5075","","","","","","","","","23","","","",""
"27038","2011","2011","2011","MD","Maryland","BRFSS","Obesity / Weight Status","Obesity / Weight Status","Percent of adults aged 18 years and older who have obesity †","","","VALUE","Value","29.6","","","26.0","33.5","1,273","39.290580964","-76.609260111","OWS","OWS1","Q036","","Income","INC","$50,000 - $74,999","INC5075","","","","","","","","","24","","","",""
"24163","2011","2011","2011","MA","Massachusetts","BRFSS","Obesity / Weight Status","Obesity / Weight Status","Percent of adults aged 18 years and older who have obesity †","","","VALUE","Value","24.6","","","21.9","27.5","2,587","42.27687047","-72.082690675","OWS","OWS1","Q036","","Income","INC","$50,000 - $74,999","INC5075","","","","","","","","","25","","","",""
"4809","2011","2011","2011","MI","Michigan","BRFSS","Obesity / Weight Status","Obesity / Weight Status","Percent of adults aged 18 years and older who have obesity †","","","VALUE","Value","32.6","","","29.2","36.2","1,498","44.661319543001","-84.71439027","OWS","OWS1","Q036","","Income","INC","$50,000 - $74,999","INC5075","","","","","","","","","26","","","",""
"36864","2011","2011","2011","MN","Minnesota","BRFSS","Obesity / Weight Status","Obesity / Weight Status","Percent of adults aged 18 years and older who have obesity †","","","VALUE","Value","28.9","","","26.4","31.5","2,302","46.355648736","-94.794200503","OWS","OWS1","Q036","","Income","INC","$50,000 - $74,999","INC5075","","","","","","","","","27","","","",""
"10009","2011","2011","2011","MS","Mississippi","BRFSS","Obesity / Weight Status","Obesity / Weight Status","Percent of adults aged 18 years and older who have obesity †","","","VALUE","Value","34.6","","","30.5","38.9","881","32.745510099","-89.538030825","OWS","OWS1","Q036","","Income","INC","$50,000 - $74,999","INC5075","","","","","","","","","28","","","",""
"36715","2011","2011","2011","MO","Missouri","BRFSS","Obesity / Weight Status","Obesity / Weight Status","Percent of adults aged 18 years and older who have obesity †","","","VALUE","Value","30.7","","","26.4","35.4","816","38.635790776","-92.566300053","OWS","OWS1","Q036","","Income","INC","$50,000 - $74,999","INC5075","","","","","","","","","29","","","",""
"5903","2011","2011","2011","MT","Montana","BRFSS","Obesity / Weight Status","Obesity / Weight Status","Percent of adults aged 18 years and older who have obesity †","","","VALUE","Value","24.3","","","21.1","27.8","1,395","47.066528972","-109.424420645","OWS","OWS1","Q036","","Income","INC","$50,000 - $74,999","INC5075","","","","","","","","","30","","","",""
"9971","2011","2011","2011","NE","Nebraska","BRFSS","Obesity / Weight Status","Obesity / Weight Status","Percent of adults aged 18 years and older who have obesity †","","","VALUE","Value","30.5","","","28.3","32.6","3,687","41.641040988001","-99.365720623","OWS","OWS1","Q036","","Income","INC","$50,000 - $74,999","INC5075","","","","","","","","","31","","","",""
"1511","2011","2011","2011","NV","Nevada","BRFSS","Obesity / Weight Status","Obesity / Weight Status","Percent of adults aged 18 years and older who have obesity †","","","VALUE","Value","29.7","","","24.4","35.7","805","39.49324039","-117.071840564","OWS","OWS1","Q036","","Income","INC","$50,000 - $74,999","INC5075","","","","","","","","","32","","","",""
"2393","2011","2011","2011","NH","New Hampshire","BRFSS","Obesity / Weight Status","Obesity / Weight Status","Percent of adults aged 18 years and older who have obesity †","","","VALUE","Value","28.6","","","24.5","33.1","885","43.655950113","-71.50036092","OWS","OWS1","Q036","","Income","INC","$50,000 - $74,999","INC5075","","","","","","","","","33","","","",""
"23440","2011","2011","2011","NJ","New Jersey","BRFSS","Obesity / Weight Status","Obesity / Weight Status","Percent of adults aged 18 years and older who have obesity †","","","VALUE","Value","23.4","","","20.7","26.3","1,820","40.130570048","-74.273691288","OWS","OWS1","Q036","","Income","INC","$50,000 - $74,999","INC5075","","","","","","","","","34","","","",""
"1303","2011","2011","2011","NM","New Mexico","BRFSS","Obesity / Weight Status","Obesity / Weight Status","Percent of adults aged 18 years and older who have obesity †","","","VALUE","Value","27.7","","","24.4","31.3","1,114","34.520880952","-106.240580985","OWS","OWS1","Q036","","Income","INC","$50,000 - $74,999","INC5075","","","","","","","","","35","","","",""
"18654","2011","2011","2011","NY","New York","BRFSS","Obesity / Weight Status","Obesity / Weight Status","Percent of adults aged 18 years and older who have obesity †","","","VALUE","Value","26.8","","","23.1","30.8","926","42.827001032","-75.543970427","OWS","OWS1","Q036","","Income","INC","$50,000 - $74,999","INC5075","","","","","","","","","36","","","",""
"38249","2011","2011","2011","NC","North Carolina","BRFSS","Obesity / Weight Status","Obesity / Weight Status","Percent of adults aged 18 years and older who have obesity †","","","VALUE","Value","27.9","","","24.1","31.9","1,293","35.466220975","-79.159250463","OWS","OWS1","Q036","","Income","INC","$50,000 - $74,999","INC5075","","","","","","","","","37","","","",""
"3575","2011","2011","2011","ND","North Dakota","BRFSS","Obesity / Weight Status","Obesity / Weight Status","Percent of adults aged 18 years and older who have obesity †","","","VALUE","Value","29.0","","","25.4","32.7","841","47.475319779","-100.118421049","OWS","OWS1","Q036","","Income","INC","$50,000 - $74,999","INC5075","","","","","","","","","38","","","",""
"26778","2011","2011","2011","OH","Ohio","BRFSS","Obesity / Weight Status","Obesity / Weight Status","Percent of adults aged 18 years and older who have obesity †","","","VALUE","Value","32.4","","","29.0","36.0","1,273","40.060210141","-82.404260056","OWS","OWS1","Q036","","Income","INC","$50,000 - $74,999","INC5075","","","","","","","","","39","","","",""
"34018","2011","2011","2011","OK","Oklahoma","BRFSS","Obesity / Weight Status","Obesity / Weight Status","Percent of adults aged 18 years and older who have obesity †","","","VALUE","Value","32.5","","","28.9","36.3","1,012","35.472031356","-97.521070214","OWS","OWS1","Q036","","Income","INC","$50,000 - $74,999","INC5075","","","","","","","","","40","","","",""
"33504","2011","2011","2011","OR","Oregon","BRFSS","Obesity / Weight Status","Obesity / Weight Status","Percent of adults aged 18 years and older who have obesity †","","","VALUE","Value","24.4","","","21.1","28.2","856","44.567449424","-120.155031326","OWS","OWS1","Q036","","Income","INC","$50,000 - $74,999","INC5075","","","","","","","","","41","","","",""
"21781","2011","2011","2011","PA","Pennsylvania","BRFSS","Obesity / Weight Status","Obesity / Weight Status","Percent of adults aged 18 years and older who have obesity †","","","VALUE","Value","29.9","","","26.8","33.3","1,506","40.793730152","-77.860700294","OWS","OWS1","Q036","","Income","INC","$50,000 - $74,999","INC5075","","","","","","","","","42","","","",""
"1483","2011","2011","2011","RI","Rhode Island","BRFSS","Obesity / Weight Status","Obesity / Weight Status","Percent of adults aged 18 years and older who have obesity †","","","VALUE","Value","25.9","","","22.2","29.9","846","41.708280193","-71.522470314","OWS","OWS1","Q036","","Income","INC","$50,000 - $74,999","INC5075","","","","","","","","","44","","","",""
"29991","2011","2011","2011","SC","South Carolina","BRFSS","Obesity / Weight Status","Obesity / Weight Status","Percent of adults aged 18 years and older who have obesity †","","","VALUE","Value","30.5","","","26.9","34.4","1,484","33.998821303","-81.045371207","OWS","OWS1","Q036","","Income","INC","$50,000 - $74,999","INC5075","","","","","","","","","45","","","",""
"13434","2011","2011","2011","SD","South Dakota","BRFSS","Obesity / Weight Status","Obesity / Weight Status","Percent of adults aged 18 years and older who have obesity †","","","VALUE","Value","28.4","","","23.8","33.6","1,222","44.353130053","-100.373530637","OWS","OWS1","Q036","","Income","INC","$50,000 - $74,999","INC5075","","","","","","","","","46","","","",""
"20095","2011","2011","2011","TN","Tennessee","BRFSS","Obesity / Weight Status","Obesity / Weight Status","Percent of adults aged 18 years and older who have obesity †","","","VALUE","Value","29.7","","","23.1","37.3","513","35.68094058","-85.774490914","OWS","OWS1","Q036","","Income","INC","$50,000 - $74,999","INC5075","","","","","","","","","47","","","",""
"36328","2011","2011","2011","TX","Texas","BRFSS","Obesity / Weight Status","Obesity / Weight Status","Percent of adults aged 18 years and older who have obesity †","","","VALUE","Value","33.8","","","29.8","38.1","1,711","31.827240407","-99.426770206","OWS","OWS1","Q036","","Income","INC","$50,000 - $74,999","INC5075","","","","","","","","","48","","","",""
"24838","2011","2011","2011","UT","Utah","BRFSS","Obesity / Weight Status","Obesity / Weight Status","Percent of adults aged 18 years and older who have obesity †","","","VALUE","Value","26.2","","","23.7","28.9","2,045","39.360700171","-111.587130635","OWS","OWS1","Q036","","Income","INC","$50,000 - $74,999","INC5075","","","","","","","","","49","","","",""
"31909","2011","2011","2011","VT","Vermont","BRFSS","Obesity / Weight Status","Obesity / Weight Status","Percent of adults aged 18 years and older who have obesity †","","","VALUE","Value","25.9","","","22.9","29.2","1,087","43.625381239","-72.517640791","OWS","OWS1","Q036","","Income","INC","$50,000 - $74,999","INC5075","","","","","","","","","50","","","",""
"2341","2011","2011","2011","VA","Virginia","BRFSS","Obesity / Weight Status","Obesity / Weight Status","Percent of adults aged 18 years and older who have obesity †","","","VALUE","Value","25.2","","","21.4","29.6","840","37.542680674","-78.457890463","OWS","OWS1","Q036","","Income","INC","$50,000 - $74,999","INC5075","","","","","","","","","51","","","",""
"14261","2011","2011","2011","WA","Washington","BRFSS","Obesity / Weight Status","Obesity / Weight Status","Percent of adults aged 18 years and older who have obesity †","","","VALUE","Value","29.1","","","26.1","32.2","2,228","47.522278629","-120.47001079","OWS","OWS1","Q036","","Income","INC","$50,000 - $74,999","INC5075","","","","","","","","","53","","","",""
"35087","2011","2011","2011","WV","West Virginia","BRFSS","Obesity / Weight Status","Obesity / Weight Status","Percent of adults aged 18 years and older who have obesity †","","","VALUE","Value","27.8","","","23.7","32.4","547","38.665510202","-80.712640135","OWS","OWS1","Q036","","Income","INC","$50,000 - $74,999","INC5075","","","","","","","","","54","","","",""
"30615","2011","2011","2011","WI","Wisconsin","BRFSS","Obesity / Weight Status","Obesity / Weight Status","Percent of adults aged 18 years and older who have obesity †","","","VALUE","Value","25.8","","","21.7","30.3","667","44.393191174","-89.816370742","OWS","OWS1","Q036","","Income","INC","$50,000 - $74,999","INC5075","","","","","","","","","55","","","",""
"2483","2011","2011","2011","WY","Wyoming","BRFSS","Obesity / Weight Status","Obesity / Weight Status","Percent of adults aged 18 years and older who have obesity †","","","VALUE","Value","24.4","","","20.9","28.4","1,088","43.235541343","-108.109830353","OWS","OWS1","Q036","","Income","INC","$50,000 - $74,999","INC5075","","","","","","","","","56","","","",""
"","","","","","","","","","","","","","","","","","","","","","","","","","","","","","","","","","","","","","","","†","Obesity is defined as body mass index (BMI) =30.0; BMI was calculated from self-reported weight and height (weight [kg]/ height [m²). Respondents reporting weight< 50 pounds or =650 pounds; height< 3 feet or =8 feet; or BMI:<12 or =100 were excluded. Pregnant respondents were also excluded.","","Footnote"
"","","","","","","","","","","","","","","","","","","","","","","","","","","","","","","","","","","","","","","","","Behavioral Risk Factor Surveillance System (BRFSS) - http://www.cdc.gov/brfss/","https://www.cdc.gov/brfss/","Data Source"
"","","","","","","","","","","","","","","","","","","","","","","","","","","","","","","","","","","","","","","","","Centers for Disease Control and Prevention. National Center for Chronic Disease Prevention and Health Promotion, Division of Nutrition, Physical Activity, and Obesity. Data, Trend and Maps [online].","/nccdphp/dnpao/data-trends-maps/index.html","Suggested Citation"
"","","","","","","","","","","","","","","","","","","","","","","","","","","","","","","","","","","","","","","","","Breastfeeding","/breastfeeding/index.htm","Related Links"
"","","","","","","","","","","","","","","","","","","","","","","","","","","","","","","","","","","","","","","","","Division of Nutrition, Physical Activity, and Obesity","/nccdphp/dnpao/index.html","Related Links"
"","","","","","","","","","","","","","","","","","","","","","","","","","","","","","","","","","","","","","","","","Physical Activity","/physicalactivity/index.html","Related Links"
"","","","","","","","","","","","","","","","","","","","","","","","","","","","","","","","","","","","","","","","","Chronic Disease Prevention and Health Promotion","/chronicdisease/index.htm","Related Links"
"","","","","","","","","","","","","","","","","","","","","","","","","","","","","","","","","","","","","","","","","Overweight and Obesity","/obesity/index.html","Related Links"
"","","","","","","","","","","","","","","","","","","","","","","","","","","","","","","","","","","","","","","","","State and Local Programs","/nccdphp/dnpao/state-local-programs/index.html","Related Links"
