"ID","YearStart","YearEnd","Description","LocationAbbr","LocationDesc","DataSource","Class","Topic","Question","Response","Data_Value_Unit","DataValueTypeId","Data_Value_Type","Data_Value","Data_Value_Footnote_Symbol","Data_Value_Footnote","Low_Confidence_Limit","High_Confidence_Limit","Sample_Size","GeoLocation_Lat","GeoLocation_Long","ClassId","TopicId","QuestionId","ResponseId","StratficationCategory1","StratificationCategoryId1","Stratification1","StratificationId1","StratificationCategory2","StratificationCategoryId2","Stratification2","StratificationId2","StratificationCategory3","StratificationCategoryId3","Stratification3","StratificationId3","LocationDisplayOrder","FootnoteSymbol","FootnoteText","URL","FootnoteHeading"
"978","2011","2011","2011","US","National","BRFSS","Obesity / Weight Status","Obesity / Weight Status","Percent of adults aged 18 years and older who have obesity †","","","VALUE","Value","8.7","","","7.5","10.1","8,355","","","OWS","OWS1","Q036","","Race/Ethnicity","RACE","Asian","RACEASN","","","","","","","","","0","","","",""
"29303","2011","2011","2011","AL","Alabama","BRFSS","Obesity / Weight Status","Obesity / Weight Status","Percent of adults aged 18 years and older who have obesity †","","","VALUE","Value","~","~","Data not available because sample size is insufficient.","~","","~","32.840571122","-86.631860762","OWS","OWS1","Q036","","Race/Ethnicity","RACE","Asian","RACEASN","","","","","","","","","1","","","",""
"2846","2011","2011","2011","AK","Alaska","BRFSS","Obesity / Weight Status","Obesity / Weight Status","Percent of adults aged 18 years and older who have obesity †","","","VALUE","Value","~","~","Data not available because sample size is insufficient.","~","","~","64.845079957001","-147.722059036","OWS","OWS1","Q036","","Race/Ethnicity","RACE","Asian","RACEASN","","","","","","","","","2","","","",""
"2313","2011","2011","2011","AZ","Arizona","BRFSS","Obesity / Weight Status","Obesity / Weight Status","Percent of adults aged 18 years and older who have obesity †","","","VALUE","Value","13.0","","","5.3","28.6","64","34.86597028","-111.763811277","OWS","OWS1","Q036","","Race/Ethnicity","RACE","Asian","RACEASN","","","","","","","","","4","","","",""
"2530","2011","2011","2011","AR","Arkansas","BRFSS","Obesity / Weight Status","Obesity / Weight Status","Percent of adults aged 18 years and older who have obesity †","","","VALUE","Value","~","~","Data not available because sample size is insufficient.","~","","~","34.748650124","-92.274490743","OWS","OWS1","Q036","","Race/Ethnicity","RACE","Asian","RACEASN","","","","","","","","","5","","","",""
"13558","2011","2011","2011","CA","California","BRFSS","Obesity / Weight Status","Obesity / Weight Status","Percent of adults aged 18 years and older who have obesity †","","","VALUE","Value","8.1","","","6.3","10.4","889","37.638640123","-120.999999538","OWS","OWS1","Q036","","Race/Ethnicity","RACE","Asian","RACEASN","","","","","","","","","6","","","",""
"24046","2011","2011","2011","CO","Colorado","BRFSS","Obesity / Weight Status","Obesity / Weight Status","Percent of adults aged 18 years and older who have obesity †","","","VALUE","Value","7.7","","","3.1","18.0","132","38.843840757","-106.133610921","OWS","OWS1","Q036","","Race/Ethnicity","RACE","Asian","RACEASN","","","","","","","","","8","","","",""
"30669","2011","2011","2011","CT","Connecticut","BRFSS","Obesity / Weight Status","Obesity / Weight Status","Percent of adults aged 18 years and older who have obesity †","","","VALUE","Value","6.3","","","3.2","12.2","164","41.56266102","-72.649840952","OWS","OWS1","Q036","","Race/Ethnicity","RACE","Asian","RACEASN","","","","","","","","","9","","","",""
"18958","2011","2011","2011","DE","Delaware","BRFSS","Obesity / Weight Status","Obesity / Weight Status","Percent of adults aged 18 years and older who have obesity †","","","VALUE","Value","2.1","","","0.4","11.6","63","39.008830667","-75.577741168","OWS","OWS1","Q036","","Race/Ethnicity","RACE","Asian","RACEASN","","","","","","","","","10","","","",""
"2462","2011","2011","2011","DC","District of Columbia","BRFSS","Obesity / Weight Status","Obesity / Weight Status","Percent of adults aged 18 years and older who have obesity †","","","VALUE","Value","0.9","","","0.3","3.0","91","38.890371385","-77.031961127","OWS","OWS1","Q036","","Race/Ethnicity","RACE","Asian","RACEASN","","","","","","","","","11","","","",""
"24142","2011","2011","2011","FL","Florida","BRFSS","Obesity / Weight Status","Obesity / Weight Status","Percent of adults aged 18 years and older who have obesity †","","","VALUE","Value","6.2","","","2.6","13.8","107","28.932040377","-81.928960539","OWS","OWS1","Q036","","Race/Ethnicity","RACE","Asian","RACEASN","","","","","","","","","12","","","",""
"28109","2011","2011","2011","GA","Georgia","BRFSS","Obesity / Weight Status","Obesity / Weight Status","Percent of adults aged 18 years and older who have obesity †","","","VALUE","Value","5.4","","","2.4","11.7","104","32.839681093","-83.627580346","OWS","OWS1","Q036","","Race/Ethnicity","RACE","Asian","RACEASN","","","","","","","","","13","","","",""
"37252","2011","2011","2011","HI","Hawaii","BRFSS","Obesity / Weight Status","Obesity / Weight Status","Percent of adults aged 18 years and older who have obesity †","","","VALUE","Value","16.0","","","13.9","18.3","2,504","21.304850435","-157.857749403","OWS","OWS1","Q036","","Race/Ethnicity","RACE","Asian","RACEASN","","","","","","","","","15","","","",""
"34373","2011","2011","2011","ID","Idaho","BRFSS","Obesity / Weight Status","Obesity / Weight Status","Percent of adults aged 18 years and older who have obesity †","","","VALUE","Value","~","~","Data not available because sample size is insufficient.","~","","~","43.682630005","-114.363730042","OWS","OWS1","Q036","","Race/Ethnicity","RACE","Asian","RACEASN","","","","","","","","","16","","","",""
"32456","2011","2011","2011","IL","Illinois","BRFSS","Obesity / Weight Status","Obesity / Weight Status","Percent of adults aged 18 years and older who have obesity †","","","VALUE","Value","4.6","","","1.7","11.9","95","40.485010283","-88.997710178","OWS","OWS1","Q036","","Race/Ethnicity","RACE","Asian","RACEASN","","","","","","","","","17","","","",""
"38604","2011","2011","2011","IN","Indiana","BRFSS","Obesity / Weight Status","Obesity / Weight Status","Percent of adults aged 18 years and older who have obesity †","","","VALUE","Value","~","~","Data not available because sample size is insufficient.","~","","~","39.766910452","-86.149960194","OWS","OWS1","Q036","","Race/Ethnicity","RACE","Asian","RACEASN","","","","","","","","","18","","","",""
"27505","2011","2011","2011","IA","Iowa","BRFSS","Obesity / Weight Status","Obesity / Weight Status","Percent of adults aged 18 years and older who have obesity †","","","VALUE","Value","3.0","","","0.9","9.4","57","42.469400913","-93.816490556","OWS","OWS1","Q036","","Race/Ethnicity","RACE","Asian","RACEASN","","","","","","","","","19","","","",""
"20164","2011","2011","2011","KS","Kansas","BRFSS","Obesity / Weight Status","Obesity / Weight Status","Percent of adults aged 18 years and older who have obesity †","","","VALUE","Value","8.9","","","5.0","15.5","162","38.3477403","-98.200781227","OWS","OWS1","Q036","","Race/Ethnicity","RACE","Asian","RACEASN","","","","","","","","","20","","","",""
"17857","2011","2011","2011","KY","Kentucky","BRFSS","Obesity / Weight Status","Obesity / Weight Status","Percent of adults aged 18 years and older who have obesity †","","","VALUE","Value","~","~","Data not available because sample size is insufficient.","~","","~","37.645970271","-84.774971048","OWS","OWS1","Q036","","Race/Ethnicity","RACE","Asian","RACEASN","","","","","","","","","21","","","",""
"27275","2011","2011","2011","LA","Louisiana","BRFSS","Obesity / Weight Status","Obesity / Weight Status","Percent of adults aged 18 years and older who have obesity †","","","VALUE","Value","~","~","Data not available because sample size is insufficient.","~","","~","31.312660644","-92.445680071","OWS","OWS1","Q036","","Race/Ethnicity","RACE","Asian","RACEASN","","","","","","","","","22","","","",""
"10475","2011","2011","2011","ME","Maine","BRFSS","Obesity / Weight Status","Obesity / Weight Status","Percent of adults aged 18 years and older who have obesity †","","","VALUE","Value","~","~","Data not available because sample size is insufficient.","~","","~","45.254228894001","-68.985031336","OWS","OWS1","Q036","","Race/Ethnicity","RACE","Asian","RACEASN","","","","","","","","","23","","","",""
"15199","2011","2011","2011","MD","Maryland","BRFSS","Obesity / Weight Status","Obesity / Weight Status","Percent of adults aged 18 years and older who have obesity †","","","VALUE","Value","8.8","","","4.7","15.9","163","39.290580964","-76.609260111","OWS","OWS1","Q036","","Race/Ethnicity","RACE","Asian","RACEASN","","","","","","","","","24","","","",""
"31106","2011","2011","2011","MA","Massachusetts","BRFSS","Obesity / Weight Status","Obesity / Weight Status","Percent of adults aged 18 years and older who have obesity †","","","VALUE","Value","4.8","","","2.7","8.2","416","42.27687047","-72.082690675","OWS","OWS1","Q036","","Race/Ethnicity","RACE","Asian","RACEASN","","","","","","","","","25","","","",""
"38344","2011","2011","2011","MI","Michigan","BRFSS","Obesity / Weight Status","Obesity / Weight Status","Percent of adults aged 18 years and older who have obesity †","","","VALUE","Value","6.9","","","3.0","14.9","102","44.661319543001","-84.71439027","OWS","OWS1","Q036","","Race/Ethnicity","RACE","Asian","RACEASN","","","","","","","","","26","","","",""
"7893","2011","2011","2011","MN","Minnesota","BRFSS","Obesity / Weight Status","Obesity / Weight Status","Percent of adults aged 18 years and older who have obesity †","","","VALUE","Value","9.1","","","5.2","15.6","217","46.355648736","-94.794200503","OWS","OWS1","Q036","","Race/Ethnicity","RACE","Asian","RACEASN","","","","","","","","","27","","","",""
"39525","2011","2011","2011","MS","Mississippi","BRFSS","Obesity / Weight Status","Obesity / Weight Status","Percent of adults aged 18 years and older who have obesity †","","","VALUE","Value","~","~","Data not available because sample size is insufficient.","~","","~","32.745510099","-89.538030825","OWS","OWS1","Q036","","Race/Ethnicity","RACE","Asian","RACEASN","","","","","","","","","28","","","",""
"23810","2011","2011","2011","MO","Missouri","BRFSS","Obesity / Weight Status","Obesity / Weight Status","Percent of adults aged 18 years and older who have obesity †","","","VALUE","Value","~","~","Data not available because sample size is insufficient.","~","","~","38.635790776","-92.566300053","OWS","OWS1","Q036","","Race/Ethnicity","RACE","Asian","RACEASN","","","","","","","","","29","","","",""
"28720","2011","2011","2011","MT","Montana","BRFSS","Obesity / Weight Status","Obesity / Weight Status","Percent of adults aged 18 years and older who have obesity †","","","VALUE","Value","~","~","Data not available because sample size is insufficient.","~","","~","47.066528972","-109.424420645","OWS","OWS1","Q036","","Race/Ethnicity","RACE","Asian","RACEASN","","","","","","","","","30","","","",""
"3163","2011","2011","2011","NE","Nebraska","BRFSS","Obesity / Weight Status","Obesity / Weight Status","Percent of adults aged 18 years and older who have obesity †","","","VALUE","Value","9.5","","","4.7","18.2","136","41.641040988001","-99.365720623","OWS","OWS1","Q036","","Race/Ethnicity","RACE","Asian","RACEASN","","","","","","","","","31","","","",""
"21755","2011","2011","2011","NV","Nevada","BRFSS","Obesity / Weight Status","Obesity / Weight Status","Percent of adults aged 18 years and older who have obesity †","","","VALUE","Value","9.2","","","4.1","19.4","125","39.49324039","-117.071840564","OWS","OWS1","Q036","","Race/Ethnicity","RACE","Asian","RACEASN","","","","","","","","","32","","","",""
"13984","2011","2011","2011","NH","New Hampshire","BRFSS","Obesity / Weight Status","Obesity / Weight Status","Percent of adults aged 18 years and older who have obesity †","","","VALUE","Value","~","~","Data not available because sample size is insufficient.","~","","~","43.655950113","-71.50036092","OWS","OWS1","Q036","","Race/Ethnicity","RACE","Asian","RACEASN","","","","","","","","","33","","","",""
"15058","2011","2011","2011","NJ","New Jersey","BRFSS","Obesity / Weight Status","Obesity / Weight Status","Percent of adults aged 18 years and older who have obesity †","","","VALUE","Value","10.2","","","6.9","14.8","539","40.130570048","-74.273691288","OWS","OWS1","Q036","","Race/Ethnicity","RACE","Asian","RACEASN","","","","","","","","","34","","","",""
"22665","2011","2011","2011","NM","New Mexico","BRFSS","Obesity / Weight Status","Obesity / Weight Status","Percent of adults aged 18 years and older who have obesity †","","","VALUE","Value","1.9","","","0.6","6.1","55","34.520880952","-106.240580985","OWS","OWS1","Q036","","Race/Ethnicity","RACE","Asian","RACEASN","","","","","","","","","35","","","",""
"19757","2011","2011","2011","NY","New York","BRFSS","Obesity / Weight Status","Obesity / Weight Status","Percent of adults aged 18 years and older who have obesity †","","","VALUE","Value","9.9","","","6.2","15.4","245","42.827001032","-75.543970427","OWS","OWS1","Q036","","Race/Ethnicity","RACE","Asian","RACEASN","","","","","","","","","36","","","",""
"24221","2011","2011","2011","NC","North Carolina","BRFSS","Obesity / Weight Status","Obesity / Weight Status","Percent of adults aged 18 years and older who have obesity †","","","VALUE","Value","6.5","","","2.2","17.7","84","35.466220975","-79.159250463","OWS","OWS1","Q036","","Race/Ethnicity","RACE","Asian","RACEASN","","","","","","","","","37","","","",""
"23622","2011","2011","2011","ND","North Dakota","BRFSS","Obesity / Weight Status","Obesity / Weight Status","Percent of adults aged 18 years and older who have obesity †","","","VALUE","Value","~","~","Data not available because sample size is insufficient.","~","","~","47.475319779","-100.118421049","OWS","OWS1","Q036","","Race/Ethnicity","RACE","Asian","RACEASN","","","","","","","","","38","","","",""
"25277","2011","2011","2011","OH","Ohio","BRFSS","Obesity / Weight Status","Obesity / Weight Status","Percent of adults aged 18 years and older who have obesity †","","","VALUE","Value","11.2","","","4.0","27.6","70","40.060210141","-82.404260056","OWS","OWS1","Q036","","Race/Ethnicity","RACE","Asian","RACEASN","","","","","","","","","39","","","",""
"14269","2011","2011","2011","OK","Oklahoma","BRFSS","Obesity / Weight Status","Obesity / Weight Status","Percent of adults aged 18 years and older who have obesity †","","","VALUE","Value","14.7","","","7.5","26.6","66","35.472031356","-97.521070214","OWS","OWS1","Q036","","Race/Ethnicity","RACE","Asian","RACEASN","","","","","","","","","40","","","",""
"25762","2011","2011","2011","OR","Oregon","BRFSS","Obesity / Weight Status","Obesity / Weight Status","Percent of adults aged 18 years and older who have obesity †","","","VALUE","Value","14.0","","","5.0","33.4","65","44.567449424","-120.155031326","OWS","OWS1","Q036","","Race/Ethnicity","RACE","Asian","RACEASN","","","","","","","","","41","","","",""
"25150","2011","2011","2011","PA","Pennsylvania","BRFSS","Obesity / Weight Status","Obesity / Weight Status","Percent of adults aged 18 years and older who have obesity †","","","VALUE","Value","3.2","","","1.2","8.6","108","40.793730152","-77.860700294","OWS","OWS1","Q036","","Race/Ethnicity","RACE","Asian","RACEASN","","","","","","","","","42","","","",""
"10385","2011","2011","2011","RI","Rhode Island","BRFSS","Obesity / Weight Status","Obesity / Weight Status","Percent of adults aged 18 years and older who have obesity †","","","VALUE","Value","6.0","","","1.6","20.2","83","41.708280193","-71.522470314","OWS","OWS1","Q036","","Race/Ethnicity","RACE","Asian","RACEASN","","","","","","","","","44","","","",""
"25770","2011","2011","2011","SC","South Carolina","BRFSS","Obesity / Weight Status","Obesity / Weight Status","Percent of adults aged 18 years and older who have obesity †","","","VALUE","Value","4.8","","","1.7","13.2","52","33.998821303","-81.045371207","OWS","OWS1","Q036","","Race/Ethnicity","RACE","Asian","RACEASN","","","","","","","","","45","","","",""
"16312","2011","2011","2011","SD","South Dakota","BRFSS","Obesity / Weight Status","Obesity / Weight Status","Percent of adults aged 18 years and older who have obesity †","","","VALUE","Value","~","~","Data not available because sample size is insufficient.","~","","~","44.353130053","-100.373530637","OWS","OWS1","Q036","","Race/Ethnicity","RACE","Asian","RACEASN","","","","","","","","","46","","","",""
"12296","2011","2011","2011","TN","Tennessee","BRFSS","Obesity / Weight Status","Obesity / Weight Status","Percent of adults aged 18 years and older who have obesity †","","","VALUE","Value","~","~","Data not available because sample size is insufficient.","~","","~","35.68094058","-85.774490914","OWS","OWS1","Q036","","Race/Ethnicity","RACE","Asian","RACEASN","","","","","","","","","47","","","",""
"13624","2011","2011","2011","TX","Texas","BRFSS","Obesity / Weight Status","Obesity / Weight Status","Percent of adults aged 18 years and older who have obesity †","","","VALUE","Value","10.5","","","3.6","26.9","307","31.827240407","-99.426770206","OWS","OWS1","Q036","","Race/Ethnicity","RACE","Asian","RACEASN","","","","","","","","","48","","","",""
"29632","2011","2011","2011","UT","Utah","BRFSS","Obesity / Weight Status","Obesity / Weight Status","Percent of adults aged 18 years and older who have obesity †","","","VALUE","Value","13.1","","","7.5","21.9","120","39.360700171","-111.587130635","OWS","OWS1","Q036","","Race/Ethnicity","RACE","Asian","RACEASN","","","","","","","","","49","","","",""
"14813","2011","2011","2011","VT","Vermont","BRFSS","Obesity / Weight Status","Obesity / Weight Status","Percent of adults aged 18 years and older who have obesity †","","","VALUE","Value","~","~","Data not available because sample size is insufficient.","~","","~","43.625381239","-72.517640791","OWS","OWS1","Q036","","Race/Ethnicity","RACE","Asian","RACEASN","","","","","","","","","50","","","",""
"23907","2011","2011","2011","VA","Virginia","BRFSS","Obesity / Weight Status","Obesity / Weight Status","Percent of adults aged 18 years and older who have obesity †","","","VALUE","Value","11.5","","","5.2","23.4","116","37.542680674","-78.457890463","OWS","OWS1","Q036","","Race/Ethnicity","RACE","Asian","RACEASN","","","","","","","","","51","","","",""
"30271","2011","2011","2011","WA","Washington","BRFSS","Obesity / Weight Status","Obesity / Weight Status","Percent of adults aged 18 years and older who have obesity †","","","VALUE","Value","8.1","","","4.9","13.2","309","47.522278629","-120.47001079","OWS","OWS1","Q036","","Race/Ethnicity","RACE","Asian","RACEASN","","","","","","","","","53","","","",""
"28792","2011","2011","2011","WV","West Virginia","BRFSS","Obesity / Weight Status","Obesity / Weight Status","Percent of adults aged 18 years and older who have obesity †","","","VALUE","Value","~","~","Data not available because sample size is insufficient.","~","","~","38.665510202","-80.712640135","OWS","OWS1","Q036","","Race/Ethnicity","RACE","Asian","RACEASN","","","","","","","","","54","","","",""
"22566","2011","2011","2011","WI","Wisconsin","BRFSS","Obesity / Weight Status","Obesity / Weight Status","Percent of adults aged 18 years and older who have obesity †","","","VALUE","Value","~","~","Data not available because sample size is insufficient.","~","","~","44.393191174","-89.816370742","OWS","OWS1","Q036","","Race/Ethnicity","RACE","Asian","RACEASN","","","","","","","","","55","","","",""
"9285","2011","2011","2011","WY","Wyoming","BRFSS","Obesity / Weight Status","Obesity / Weight Status","Percent of adults aged 18 years and older who have obesity †","","","VALUE","Value","~","~","Data not available because sample size is insufficient.","~","","~","43.235541343","-108.109830353","OWS","OWS1","Q036","","Race/Ethnicity","RACE","Asian","RACEASN","","","","","","","","","56","","","",""
"","","","","","","","","","","","","","","","","","","","","","","","","","","","","","","","","","","","","","","","~","Data not available because sample size is insufficient.","","Footnote"
"","","","","","","","","","","","","","","","","","","","","","","","","","","","","","","","","","","","","","","","†","Obesity is defined as body mass index (BMI) =30.0; BMI was calculated from self-reported weight and height (weight [kg]/ height [m²). Respondents reporting weight< 50 pounds or =650 pounds; height< 3 feet or =8 feet; or BMI:<12 or =100 were excluded. Pregnant respondents were also excluded.","","Footnote"
"","","","","","","","","","","","","","","","","","","","","","","","","","","","","","","","","","","","","","","","","Behavioral Risk Factor Surveillance System (BRFSS) - http://www.cdc.gov/brfss/","https://www.cdc.gov/brfss/","Data Source"
"","","","","","","","","","","","","","","","","","","","","","","","","","","","","","","","","","","","","","","","","Centers for Disease Control and Prevention. National Center for Chronic Disease Prevention and Health Promotion, Division of Nutrition, Physical Activity, and Obesity. Data, Trend and Maps [online].","/nccdphp/dnpao/data-trends-maps/index.html","Suggested Citation"
"","","","","","","","","","","","","","","","","","","","","","","","","","","","","","","","","","","","","","","","","Breastfeeding","/breastfeeding/index.htm","Related Links"
"","","","","","","","","","","","","","","","","","","","","","","","","","","","","","","","","","","","","","","","","Division of Nutrition, Physical Activity, and Obesity","/nccdphp/dnpao/index.html","Related Links"
"","","","","","","","","","","","","","","","","","","","","","","","","","","","","","","","","","","","","","","","","Physical Activity","/physicalactivity/index.html","Related Links"
"","","","","","","","","","","","","","","","","","","","","","","","","","","","","","","","","","","","","","","","","Chronic Disease Prevention and Health Promotion","/chronicdisease/index.htm","Related Links"
"","","","","","","","","","","","","","","","","","","","","","","","","","","","","","","","","","","","","","","","","Overweight and Obesity","/obesity/index.html","Related Links"
"","","","","","","","","","","","","","","","","","","","","","","","","","","","","","","","","","","","","","","","","State and Local Programs","/nccdphp/dnpao/state-local-programs/index.html","Related Links"
