"ID","YearStart","YearEnd","Description","LocationAbbr","LocationDesc","DataSource","Class","Topic","Question","Response","Data_Value_Unit","DataValueTypeId","Data_Value_Type","Data_Value","Data_Value_Footnote_Symbol","Data_Value_Footnote","Low_Confidence_Limit","High_Confidence_Limit","Sample_Size","GeoLocation_Lat","GeoLocation_Long","ClassId","TopicId","QuestionId","ResponseId","StratficationCategory1","StratificationCategoryId1","Stratification1","StratificationId1","StratificationCategory2","StratificationCategoryId2","Stratification2","StratificationId2","StratificationCategory3","StratificationCategoryId3","Stratification3","StratificationId3","LocationDisplayOrder","FootnoteSymbol","FootnoteText","URL","FootnoteHeading"
"1995","2011","2011","2011","US","National","BRFSS","Obesity / Weight Status","Obesity / Weight Status","Percent of adults aged 18 years and older who have obesity †","","","VALUE","Value","26.2","","","25.9","26.5","371,669","","","OWS","OWS1","Q036","","Race/Ethnicity","RACE","Non-Hispanic White","RACEWHT","","","","","","","","","0","","","",""
"22464","2011","2011","2011","AL","Alabama","BRFSS","Obesity / Weight Status","Obesity / Weight Status","Percent of adults aged 18 years and older who have obesity †","","","VALUE","Value","29.8","","","28.0","31.6","5,042","32.840571122","-86.631860762","OWS","OWS1","Q036","","Race/Ethnicity","RACE","Non-Hispanic White","RACEWHT","","","","","","","","","1","","","",""
"37104","2011","2011","2011","AK","Alaska","BRFSS","Obesity / Weight Status","Obesity / Weight Status","Percent of adults aged 18 years and older who have obesity †","","","VALUE","Value","25.9","","","23.6","28.2","2,425","64.845079957001","-147.722059036","OWS","OWS1","Q036","","Race/Ethnicity","RACE","Non-Hispanic White","RACEWHT","","","","","","","","","2","","","",""
"4381","2011","2011","2011","AZ","Arizona","BRFSS","Obesity / Weight Status","Obesity / Weight Status","Percent of adults aged 18 years and older who have obesity †","","","VALUE","Value","21.2","","","19.0","23.6","4,499","34.86597028","-111.763811277","OWS","OWS1","Q036","","Race/Ethnicity","RACE","Non-Hispanic White","RACEWHT","","","","","","","","","4","","","",""
"4326","2011","2011","2011","AR","Arkansas","BRFSS","Obesity / Weight Status","Obesity / Weight Status","Percent of adults aged 18 years and older who have obesity †","","","VALUE","Value","31.0","","","28.7","33.4","3,563","34.748650124","-92.274490743","OWS","OWS1","Q036","","Race/Ethnicity","RACE","Non-Hispanic White","RACEWHT","","","","","","","","","5","","","",""
"2923","2011","2011","2011","CA","California","BRFSS","Obesity / Weight Status","Obesity / Weight Status","Percent of adults aged 18 years and older who have obesity †","","","VALUE","Value","22.0","","","21.0","23.1","10,988","37.638640123","-120.999999538","OWS","OWS1","Q036","","Race/Ethnicity","RACE","Non-Hispanic White","RACEWHT","","","","","","","","","6","","","",""
"21006","2011","2011","2011","CO","Colorado","BRFSS","Obesity / Weight Status","Obesity / Weight Status","Percent of adults aged 18 years and older who have obesity †","","","VALUE","Value","18.9","","","17.8","19.9","10,641","38.843840757","-106.133610921","OWS","OWS1","Q036","","Race/Ethnicity","RACE","Non-Hispanic White","RACEWHT","","","","","","","","","8","","","",""
"22073","2011","2011","2011","CT","Connecticut","BRFSS","Obesity / Weight Status","Obesity / Weight Status","Percent of adults aged 18 years and older who have obesity †","","","VALUE","Value","23.0","","","21.4","24.7","5,100","41.56266102","-72.649840952","OWS","OWS1","Q036","","Race/Ethnicity","RACE","Non-Hispanic White","RACEWHT","","","","","","","","","9","","","",""
"21084","2011","2011","2011","DE","Delaware","BRFSS","Obesity / Weight Status","Obesity / Weight Status","Percent of adults aged 18 years and older who have obesity †","","","VALUE","Value","27.2","","","25.2","29.3","3,501","39.008830667","-75.577741168","OWS","OWS1","Q036","","Race/Ethnicity","RACE","Non-Hispanic White","RACEWHT","","","","","","","","","10","","","",""
"2278","2011","2011","2011","DC","District of Columbia","BRFSS","Obesity / Weight Status","Obesity / Weight Status","Percent of adults aged 18 years and older who have obesity †","","","VALUE","Value","10.7","","","8.8","13.0","1,939","38.890371385","-77.031961127","OWS","OWS1","Q036","","Race/Ethnicity","RACE","Non-Hispanic White","RACEWHT","","","","","","","","","11","","","",""
"37732","2011","2011","2011","FL","Florida","BRFSS","Obesity / Weight Status","Obesity / Weight Status","Percent of adults aged 18 years and older who have obesity †","","","VALUE","Value","24.9","","","23.6","26.3","9,025","28.932040377","-81.928960539","OWS","OWS1","Q036","","Race/Ethnicity","RACE","Non-Hispanic White","RACEWHT","","","","","","","","","12","","","",""
"8134","2011","2011","2011","GA","Georgia","BRFSS","Obesity / Weight Status","Obesity / Weight Status","Percent of adults aged 18 years and older who have obesity †","","","VALUE","Value","25.0","","","23.5","26.6","6,482","32.839681093","-83.627580346","OWS","OWS1","Q036","","Race/Ethnicity","RACE","Non-Hispanic White","RACEWHT","","","","","","","","","13","","","",""
"30623","2011","2011","2011","HI","Hawaii","BRFSS","Obesity / Weight Status","Obesity / Weight Status","Percent of adults aged 18 years and older who have obesity †","","","VALUE","Value","19.0","","","16.5","21.7","2,475","21.304850435","-157.857749403","OWS","OWS1","Q036","","Race/Ethnicity","RACE","Non-Hispanic White","RACEWHT","","","","","","","","","15","","","",""
"7195","2011","2011","2011","ID","Idaho","BRFSS","Obesity / Weight Status","Obesity / Weight Status","Percent of adults aged 18 years and older who have obesity †","","","VALUE","Value","25.9","","","24.2","27.7","5,216","43.682630005","-114.363730042","OWS","OWS1","Q036","","Race/Ethnicity","RACE","Non-Hispanic White","RACEWHT","","","","","","","","","16","","","",""
"24052","2011","2011","2011","IL","Illinois","BRFSS","Obesity / Weight Status","Obesity / Weight Status","Percent of adults aged 18 years and older who have obesity †","","","VALUE","Value","26.0","","","24.3","27.8","4,355","40.485010283","-88.997710178","OWS","OWS1","Q036","","Race/Ethnicity","RACE","Non-Hispanic White","RACEWHT","","","","","","","","","17","","","",""
"38262","2011","2011","2011","IN","Indiana","BRFSS","Obesity / Weight Status","Obesity / Weight Status","Percent of adults aged 18 years and older who have obesity †","","","VALUE","Value","29.5","","","28.1","31.0","6,518","39.766910452","-86.149960194","OWS","OWS1","Q036","","Race/Ethnicity","RACE","Non-Hispanic White","RACEWHT","","","","","","","","","18","","","",""
"38374","2011","2011","2011","IA","Iowa","BRFSS","Obesity / Weight Status","Obesity / Weight Status","Percent of adults aged 18 years and older who have obesity †","","","VALUE","Value","29.2","","","27.8","30.6","6,413","42.469400913","-93.816490556","OWS","OWS1","Q036","","Race/Ethnicity","RACE","Non-Hispanic White","RACEWHT","","","","","","","","","19","","","",""
"2258","2011","2011","2011","KS","Kansas","BRFSS","Obesity / Weight Status","Obesity / Weight Status","Percent of adults aged 18 years and older who have obesity †","","","VALUE","Value","29.1","","","28.2","29.9","17,317","38.3477403","-98.200781227","OWS","OWS1","Q036","","Race/Ethnicity","RACE","Non-Hispanic White","RACEWHT","","","","","","","","","20","","","",""
"23856","2011","2011","2011","KY","Kentucky","BRFSS","Obesity / Weight Status","Obesity / Weight Status","Percent of adults aged 18 years and older who have obesity †","","","VALUE","Value","29.5","","","28.1","31.0","8,386","37.645970271","-84.774971048","OWS","OWS1","Q036","","Race/Ethnicity","RACE","Non-Hispanic White","RACEWHT","","","","","","","","","21","","","",""
"29924","2011","2011","2011","LA","Louisiana","BRFSS","Obesity / Weight Status","Obesity / Weight Status","Percent of adults aged 18 years and older who have obesity †","","","VALUE","Value","31.0","","","29.3","32.8","7,208","31.312660644","-92.445680071","OWS","OWS1","Q036","","Race/Ethnicity","RACE","Non-Hispanic White","RACEWHT","","","","","","","","","22","","","",""
"37434","2011","2011","2011","ME","Maine","BRFSS","Obesity / Weight Status","Obesity / Weight Status","Percent of adults aged 18 years and older who have obesity †","","","VALUE","Value","27.9","","","26.8","29.0","11,959","45.254228894001","-68.985031336","OWS","OWS1","Q036","","Race/Ethnicity","RACE","Non-Hispanic White","RACEWHT","","","","","","","","","23","","","",""
"25900","2011","2011","2011","MD","Maryland","BRFSS","Obesity / Weight Status","Obesity / Weight Status","Percent of adults aged 18 years and older who have obesity †","","","VALUE","Value","25.9","","","24.4","27.6","6,820","39.290580964","-76.609260111","OWS","OWS1","Q036","","Race/Ethnicity","RACE","Non-Hispanic White","RACEWHT","","","","","","","","","24","","","",""
"2810","2011","2011","2011","MA","Massachusetts","BRFSS","Obesity / Weight Status","Obesity / Weight Status","Percent of adults aged 18 years and older who have obesity †","","","VALUE","Value","22.1","","","21.1","23.1","16,463","42.27687047","-72.082690675","OWS","OWS1","Q036","","Race/Ethnicity","RACE","Non-Hispanic White","RACEWHT","","","","","","","","","25","","","",""
"19087","2011","2011","2011","MI","Michigan","BRFSS","Obesity / Weight Status","Obesity / Weight Status","Percent of adults aged 18 years and older who have obesity †","","","VALUE","Value","29.7","","","28.3","31.2","8,380","44.661319543001","-84.71439027","OWS","OWS1","Q036","","Race/Ethnicity","RACE","Non-Hispanic White","RACEWHT","","","","","","","","","26","","","",""
"7833","2011","2011","2011","MN","Minnesota","BRFSS","Obesity / Weight Status","Obesity / Weight Status","Percent of adults aged 18 years and older who have obesity †","","","VALUE","Value","25.9","","","24.8","27.0","12,933","46.355648736","-94.794200503","OWS","OWS1","Q036","","Race/Ethnicity","RACE","Non-Hispanic White","RACEWHT","","","","","","","","","27","","","",""
"10539","2011","2011","2011","MS","Mississippi","BRFSS","Obesity / Weight Status","Obesity / Weight Status","Percent of adults aged 18 years and older who have obesity †","","","VALUE","Value","30.7","","","29.0","32.4","5,480","32.745510099","-89.538030825","OWS","OWS1","Q036","","Race/Ethnicity","RACE","Non-Hispanic White","RACEWHT","","","","","","","","","28","","","",""
"16891","2011","2011","2011","MO","Missouri","BRFSS","Obesity / Weight Status","Obesity / Weight Status","Percent of adults aged 18 years and older who have obesity †","","","VALUE","Value","29.4","","","27.6","31.1","5,161","38.635790776","-92.566300053","OWS","OWS1","Q036","","Race/Ethnicity","RACE","Non-Hispanic White","RACEWHT","","","","","","","","","29","","","",""
"24099","2011","2011","2011","MT","Montana","BRFSS","Obesity / Weight Status","Obesity / Weight Status","Percent of adults aged 18 years and older who have obesity †","","","VALUE","Value","24.1","","","22.7","25.5","8,715","47.066528972","-109.424420645","OWS","OWS1","Q036","","Race/Ethnicity","RACE","Non-Hispanic White","RACEWHT","","","","","","","","","30","","","",""
"33157","2011","2011","2011","NE","Nebraska","BRFSS","Obesity / Weight Status","Obesity / Weight Status","Percent of adults aged 18 years and older who have obesity †","","","VALUE","Value","28.3","","","27.4","29.1","21,949","41.641040988001","-99.365720623","OWS","OWS1","Q036","","Race/Ethnicity","RACE","Non-Hispanic White","RACEWHT","","","","","","","","","31","","","",""
"33225","2011","2011","2011","NV","Nevada","BRFSS","Obesity / Weight Status","Obesity / Weight Status","Percent of adults aged 18 years and older who have obesity †","","","VALUE","Value","21.9","","","20.0","24.1","4,037","39.49324039","-117.071840564","OWS","OWS1","Q036","","Race/Ethnicity","RACE","Non-Hispanic White","RACEWHT","","","","","","","","","32","","","",""
"34663","2011","2011","2011","NH","New Hampshire","BRFSS","Obesity / Weight Status","Obesity / Weight Status","Percent of adults aged 18 years and older who have obesity †","","","VALUE","Value","26.5","","","24.9","28.0","5,675","43.655950113","-71.50036092","OWS","OWS1","Q036","","Race/Ethnicity","RACE","Non-Hispanic White","RACEWHT","","","","","","","","","33","","","",""
"23726","2011","2011","2011","NJ","New Jersey","BRFSS","Obesity / Weight Status","Obesity / Weight Status","Percent of adults aged 18 years and older who have obesity †","","","VALUE","Value","23.1","","","21.9","24.3","10,027","40.130570048","-74.273691288","OWS","OWS1","Q036","","Race/Ethnicity","RACE","Non-Hispanic White","RACEWHT","","","","","","","","","34","","","",""
"36496","2011","2011","2011","NM","New Mexico","BRFSS","Obesity / Weight Status","Obesity / Weight Status","Percent of adults aged 18 years and older who have obesity †","","","VALUE","Value","22.5","","","20.9","24.1","4,826","34.520880952","-106.240580985","OWS","OWS1","Q036","","Race/Ethnicity","RACE","Non-Hispanic White","RACEWHT","","","","","","","","","35","","","",""
"32863","2011","2011","2011","NY","New York","BRFSS","Obesity / Weight Status","Obesity / Weight Status","Percent of adults aged 18 years and older who have obesity †","","","VALUE","Value","23.6","","","22.1","25.3","4,849","42.827001032","-75.543970427","OWS","OWS1","Q036","","Race/Ethnicity","RACE","Non-Hispanic White","RACEWHT","","","","","","","","","36","","","",""
"36087","2011","2011","2011","NC","North Carolina","BRFSS","Obesity / Weight Status","Obesity / Weight Status","Percent of adults aged 18 years and older who have obesity †","","","VALUE","Value","26.2","","","24.6","27.8","8,107","35.466220975","-79.159250463","OWS","OWS1","Q036","","Race/Ethnicity","RACE","Non-Hispanic White","RACEWHT","","","","","","","","","37","","","",""
"2277","2011","2011","2011","ND","North Dakota","BRFSS","Obesity / Weight Status","Obesity / Weight Status","Percent of adults aged 18 years and older who have obesity †","","","VALUE","Value","26.9","","","25.3","28.5","4,642","47.475319779","-100.118421049","OWS","OWS1","Q036","","Race/Ethnicity","RACE","Non-Hispanic White","RACEWHT","","","","","","","","","38","","","",""
"17562","2011","2011","2011","OH","Ohio","BRFSS","Obesity / Weight Status","Obesity / Weight Status","Percent of adults aged 18 years and older who have obesity †","","","VALUE","Value","29.2","","","27.8","30.7","7,943","40.060210141","-82.404260056","OWS","OWS1","Q036","","Race/Ethnicity","RACE","Non-Hispanic White","RACEWHT","","","","","","","","","39","","","",""
"20920","2011","2011","2011","OK","Oklahoma","BRFSS","Obesity / Weight Status","Obesity / Weight Status","Percent of adults aged 18 years and older who have obesity †","","","VALUE","Value","30.4","","","28.8","32.0","6,123","35.472031356","-97.521070214","OWS","OWS1","Q036","","Race/Ethnicity","RACE","Non-Hispanic White","RACEWHT","","","","","","","","","40","","","",""
"16968","2011","2011","2011","OR","Oregon","BRFSS","Obesity / Weight Status","Obesity / Weight Status","Percent of adults aged 18 years and older who have obesity †","","","VALUE","Value","26.1","","","24.6","27.6","5,057","44.567449424","-120.155031326","OWS","OWS1","Q036","","Race/Ethnicity","RACE","Non-Hispanic White","RACEWHT","","","","","","","","","41","","","",""
"31552","2011","2011","2011","PA","Pennsylvania","BRFSS","Obesity / Weight Status","Obesity / Weight Status","Percent of adults aged 18 years and older who have obesity †","","","VALUE","Value","27.9","","","26.7","29.3","9,253","40.793730152","-77.860700294","OWS","OWS1","Q036","","Race/Ethnicity","RACE","Non-Hispanic White","RACEWHT","","","","","","","","","42","","","",""
"16562","2011","2011","2011","RI","Rhode Island","BRFSS","Obesity / Weight Status","Obesity / Weight Status","Percent of adults aged 18 years and older who have obesity †","","","VALUE","Value","24.9","","","23.3","26.6","5,249","41.708280193","-71.522470314","OWS","OWS1","Q036","","Race/Ethnicity","RACE","Non-Hispanic White","RACEWHT","","","","","","","","","44","","","",""
"10641","2011","2011","2011","SC","South Carolina","BRFSS","Obesity / Weight Status","Obesity / Weight Status","Percent of adults aged 18 years and older who have obesity †","","","VALUE","Value","27.0","","","25.5","28.5","8,123","33.998821303","-81.045371207","OWS","OWS1","Q036","","Race/Ethnicity","RACE","Non-Hispanic White","RACEWHT","","","","","","","","","45","","","",""
"28133","2011","2011","2011","SD","South Dakota","BRFSS","Obesity / Weight Status","Obesity / Weight Status","Percent of adults aged 18 years and older who have obesity †","","","VALUE","Value","26.7","","","24.7","28.7","6,717","44.353130053","-100.373530637","OWS","OWS1","Q036","","Race/Ethnicity","RACE","Non-Hispanic White","RACEWHT","","","","","","","","","46","","","",""
"22088","2011","2011","2011","TN","Tennessee","BRFSS","Obesity / Weight Status","Obesity / Weight Status","Percent of adults aged 18 years and older who have obesity †","","","VALUE","Value","27.9","","","25.3","30.6","4,667","35.68094058","-85.774490914","OWS","OWS1","Q036","","Race/Ethnicity","RACE","Non-Hispanic White","RACEWHT","","","","","","","","","47","","","",""
"2682","2011","2011","2011","TX","Texas","BRFSS","Obesity / Weight Status","Obesity / Weight Status","Percent of adults aged 18 years and older who have obesity †","","","VALUE","Value","27.0","","","25.4","28.8","9,062","31.827240407","-99.426770206","OWS","OWS1","Q036","","Race/Ethnicity","RACE","Non-Hispanic White","RACEWHT","","","","","","","","","48","","","",""
"23142","2011","2011","2011","UT","Utah","BRFSS","Obesity / Weight Status","Obesity / Weight Status","Percent of adults aged 18 years and older who have obesity †","","","VALUE","Value","24.4","","","23.3","25.5","10,561","39.360700171","-111.587130635","OWS","OWS1","Q036","","Race/Ethnicity","RACE","Non-Hispanic White","RACEWHT","","","","","","","","","49","","","",""
"4931","2011","2011","2011","VT","Vermont","BRFSS","Obesity / Weight Status","Obesity / Weight Status","Percent of adults aged 18 years and older who have obesity †","","","VALUE","Value","25.3","","","24.0","26.8","6,366","43.625381239","-72.517640791","OWS","OWS1","Q036","","Race/Ethnicity","RACE","Non-Hispanic White","RACEWHT","","","","","","","","","50","","","",""
"20144","2011","2011","2011","VA","Virginia","BRFSS","Obesity / Weight Status","Obesity / Weight Status","Percent of adults aged 18 years and older who have obesity †","","","VALUE","Value","27.5","","","25.7","29.4","4,682","37.542680674","-78.457890463","OWS","OWS1","Q036","","Race/Ethnicity","RACE","Non-Hispanic White","RACEWHT","","","","","","","","","51","","","",""
"6282","2011","2011","2011","WA","Washington","BRFSS","Obesity / Weight Status","Obesity / Weight Status","Percent of adults aged 18 years and older who have obesity †","","","VALUE","Value","27.0","","","25.7","28.3","11,987","47.522278629","-120.47001079","OWS","OWS1","Q036","","Race/Ethnicity","RACE","Non-Hispanic White","RACEWHT","","","","","","","","","53","","","",""
"38617","2011","2011","2011","WV","West Virginia","BRFSS","Obesity / Weight Status","Obesity / Weight Status","Percent of adults aged 18 years and older who have obesity †","","","VALUE","Value","32.4","","","30.8","34.0","4,656","38.665510202","-80.712640135","OWS","OWS1","Q036","","Race/Ethnicity","RACE","Non-Hispanic White","RACEWHT","","","","","","","","","54","","","",""
"18314","2011","2011","2011","WI","Wisconsin","BRFSS","Obesity / Weight Status","Obesity / Weight Status","Percent of adults aged 18 years and older who have obesity †","","","VALUE","Value","26.8","","","24.9","28.8","4,134","44.393191174","-89.816370742","OWS","OWS1","Q036","","Race/Ethnicity","RACE","Non-Hispanic White","RACEWHT","","","","","","","","","55","","","",""
"37657","2011","2011","2011","WY","Wyoming","BRFSS","Obesity / Weight Status","Obesity / Weight Status","Percent of adults aged 18 years and older who have obesity †","","","VALUE","Value","24.9","","","23.3","26.6","5,973","43.235541343","-108.109830353","OWS","OWS1","Q036","","Race/Ethnicity","RACE","Non-Hispanic White","RACEWHT","","","","","","","","","56","","","",""
"","","","","","","","","","","","","","","","","","","","","","","","","","","","","","","","","","","","","","","","†","Obesity is defined as body mass index (BMI) =30.0; BMI was calculated from self-reported weight and height (weight [kg]/ height [m²). Respondents reporting weight< 50 pounds or =650 pounds; height< 3 feet or =8 feet; or BMI:<12 or =100 were excluded. Pregnant respondents were also excluded.","","Footnote"
"","","","","","","","","","","","","","","","","","","","","","","","","","","","","","","","","","","","","","","","","Behavioral Risk Factor Surveillance System (BRFSS) - http://www.cdc.gov/brfss/","https://www.cdc.gov/brfss/","Data Source"
"","","","","","","","","","","","","","","","","","","","","","","","","","","","","","","","","","","","","","","","","Centers for Disease Control and Prevention. National Center for Chronic Disease Prevention and Health Promotion, Division of Nutrition, Physical Activity, and Obesity. Data, Trend and Maps [online].","/nccdphp/dnpao/data-trends-maps/index.html","Suggested Citation"
"","","","","","","","","","","","","","","","","","","","","","","","","","","","","","","","","","","","","","","","","Breastfeeding","/breastfeeding/index.htm","Related Links"
"","","","","","","","","","","","","","","","","","","","","","","","","","","","","","","","","","","","","","","","","Division of Nutrition, Physical Activity, and Obesity","/nccdphp/dnpao/index.html","Related Links"
"","","","","","","","","","","","","","","","","","","","","","","","","","","","","","","","","","","","","","","","","Physical Activity","/physicalactivity/index.html","Related Links"
"","","","","","","","","","","","","","","","","","","","","","","","","","","","","","","","","","","","","","","","","Chronic Disease Prevention and Health Promotion","/chronicdisease/index.htm","Related Links"
"","","","","","","","","","","","","","","","","","","","","","","","","","","","","","","","","","","","","","","","","Overweight and Obesity","/obesity/index.html","Related Links"
"","","","","","","","","","","","","","","","","","","","","","","","","","","","","","","","","","","","","","","","","State and Local Programs","/nccdphp/dnpao/state-local-programs/index.html","Related Links"
