"ID","YearStart","YearEnd","Description","LocationAbbr","LocationDesc","DataSource","Class","Topic","Question","Response","Data_Value_Unit","DataValueTypeId","Data_Value_Type","Data_Value","Data_Value_Footnote_Symbol","Data_Value_Footnote","Low_Confidence_Limit","High_Confidence_Limit","Sample_Size","GeoLocation_Lat","GeoLocation_Long","ClassId","TopicId","QuestionId","ResponseId","StratficationCategory1","StratificationCategoryId1","Stratification1","StratificationId1","StratificationCategory2","StratificationCategoryId2","Stratification2","StratificationId2","StratificationCategory3","StratificationCategoryId3","Stratification3","StratificationId3","LocationDisplayOrder","FootnoteSymbol","FootnoteText","URL","FootnoteHeading"
"1150","2012","2012","2012","US","National","BRFSS","Obesity / Weight Status","Obesity / Weight Status","Percent of adults aged 18 years and older who have obesity †","","","VALUE","Value","24.2","","","21.5","27.1","2,956","","","OWS","OWS1","Q036","","Race/Ethnicity","RACE","Other","RACEOTH","","","","","","","","","0","","","",""
"2381","2012","2012","2012","AL","Alabama","BRFSS","Obesity / Weight Status","Obesity / Weight Status","Percent of adults aged 18 years and older who have obesity †","","","VALUE","Value","24.4","","","11.7","44.0","54","32.840571122","-86.631860762","OWS","OWS1","Q036","","Race/Ethnicity","RACE","Other","RACEOTH","","","","","","","","","1","","","",""
"6254","2012","2012","2012","AK","Alaska","BRFSS","Obesity / Weight Status","Obesity / Weight Status","Percent of adults aged 18 years and older who have obesity †","","","VALUE","Value","21.5","","","12.5","34.6","84","64.845079957001","-147.722059036","OWS","OWS1","Q036","","Race/Ethnicity","RACE","Other","RACEOTH","","","","","","","","","2","","","",""
"35461","2012","2012","2012","AZ","Arizona","BRFSS","Obesity / Weight Status","Obesity / Weight Status","Percent of adults aged 18 years and older who have obesity †","","","VALUE","Value","27.2","","","13.5","47.3","63","34.86597028","-111.763811277","OWS","OWS1","Q036","","Race/Ethnicity","RACE","Other","RACEOTH","","","","","","","","","4","","","",""
"35886","2012","2012","2012","AR","Arkansas","BRFSS","Obesity / Weight Status","Obesity / Weight Status","Percent of adults aged 18 years and older who have obesity †","","","VALUE","Value","~","~","Data not available because sample size is insufficient.","~","","~","34.748650124","-92.274490743","OWS","OWS1","Q036","","Race/Ethnicity","RACE","Other","RACEOTH","","","","","","","","","5","","","",""
"36937","2012","2012","2012","CA","California","BRFSS","Obesity / Weight Status","Obesity / Weight Status","Percent of adults aged 18 years and older who have obesity †","","","VALUE","Value","~","~","Data not available because sample size is insufficient.","~","","~","37.638640123","-120.999999538","OWS","OWS1","Q036","","Race/Ethnicity","RACE","Other","RACEOTH","","","","","","","","","6","","","",""
"4323","2012","2012","2012","CO","Colorado","BRFSS","Obesity / Weight Status","Obesity / Weight Status","Percent of adults aged 18 years and older who have obesity †","","","VALUE","Value","31.7","","","19.6","47.0","62","38.843840757","-106.133610921","OWS","OWS1","Q036","","Race/Ethnicity","RACE","Other","RACEOTH","","","","","","","","","8","","","",""
"4633","2012","2012","2012","CT","Connecticut","BRFSS","Obesity / Weight Status","Obesity / Weight Status","Percent of adults aged 18 years and older who have obesity †","","","VALUE","Value","24.4","","","14.4","38.4","89","41.56266102","-72.649840952","OWS","OWS1","Q036","","Race/Ethnicity","RACE","Other","RACEOTH","","","","","","","","","9","","","",""
"3757","2012","2012","2012","DE","Delaware","BRFSS","Obesity / Weight Status","Obesity / Weight Status","Percent of adults aged 18 years and older who have obesity †","","","VALUE","Value","~","~","Data not available because sample size is insufficient.","~","","~","39.008830667","-75.577741168","OWS","OWS1","Q036","","Race/Ethnicity","RACE","Other","RACEOTH","","","","","","","","","10","","","",""
"25769","2012","2012","2012","DC","District of Columbia","BRFSS","Obesity / Weight Status","Obesity / Weight Status","Percent of adults aged 18 years and older who have obesity †","","","VALUE","Value","~","~","Data not available because sample size is insufficient.","~","","~","38.890371385","-77.031961127","OWS","OWS1","Q036","","Race/Ethnicity","RACE","Other","RACEOTH","","","","","","","","","11","","","",""
"21069","2012","2012","2012","FL","Florida","BRFSS","Obesity / Weight Status","Obesity / Weight Status","Percent of adults aged 18 years and older who have obesity †","","","VALUE","Value","~","~","Data not available because sample size is insufficient.","~","","~","28.932040377","-81.928960539","OWS","OWS1","Q036","","Race/Ethnicity","RACE","Other","RACEOTH","","","","","","","","","12","","","",""
"10774","2012","2012","2012","GA","Georgia","BRFSS","Obesity / Weight Status","Obesity / Weight Status","Percent of adults aged 18 years and older who have obesity †","","","VALUE","Value","17.9","","","9.7","30.5","63","32.839681093","-83.627580346","OWS","OWS1","Q036","","Race/Ethnicity","RACE","Other","RACEOTH","","","","","","","","","13","","","",""
"23610","2012","2012","2012","HI","Hawaii","BRFSS","Obesity / Weight Status","Obesity / Weight Status","Percent of adults aged 18 years and older who have obesity †","","","VALUE","Value","21.2","","","10.5","38.3","73","21.304850435","-157.857749403","OWS","OWS1","Q036","","Race/Ethnicity","RACE","Other","RACEOTH","","","","","","","","","15","","","",""
"22935","2012","2012","2012","ID","Idaho","BRFSS","Obesity / Weight Status","Obesity / Weight Status","Percent of adults aged 18 years and older who have obesity †","","","VALUE","Value","~","~","Data not available because sample size is insufficient.","~","","~","43.682630005","-114.363730042","OWS","OWS1","Q036","","Race/Ethnicity","RACE","Other","RACEOTH","","","","","","","","","16","","","",""
"10727","2012","2012","2012","IL","Illinois","BRFSS","Obesity / Weight Status","Obesity / Weight Status","Percent of adults aged 18 years and older who have obesity †","","","VALUE","Value","~","~","Data not available because sample size is insufficient.","~","","~","40.485010283","-88.997710178","OWS","OWS1","Q036","","Race/Ethnicity","RACE","Other","RACEOTH","","","","","","","","","17","","","",""
"36958","2012","2012","2012","IN","Indiana","BRFSS","Obesity / Weight Status","Obesity / Weight Status","Percent of adults aged 18 years and older who have obesity †","","","VALUE","Value","~","~","Data not available because sample size is insufficient.","~","","~","39.766910452","-86.149960194","OWS","OWS1","Q036","","Race/Ethnicity","RACE","Other","RACEOTH","","","","","","","","","18","","","",""
"7097","2012","2012","2012","IA","Iowa","BRFSS","Obesity / Weight Status","Obesity / Weight Status","Percent of adults aged 18 years and older who have obesity †","","","VALUE","Value","~","~","Data not available because sample size is insufficient.","~","","~","42.469400913","-93.816490556","OWS","OWS1","Q036","","Race/Ethnicity","RACE","Other","RACEOTH","","","","","","","","","19","","","",""
"21780","2012","2012","2012","KS","Kansas","BRFSS","Obesity / Weight Status","Obesity / Weight Status","Percent of adults aged 18 years and older who have obesity †","","","VALUE","Value","~","~","Data not available because sample size is insufficient.","~","","~","38.3477403","-98.200781227","OWS","OWS1","Q036","","Race/Ethnicity","RACE","Other","RACEOTH","","","","","","","","","20","","","",""
"27402","2012","2012","2012","KY","Kentucky","BRFSS","Obesity / Weight Status","Obesity / Weight Status","Percent of adults aged 18 years and older who have obesity †","","","VALUE","Value","~","~","Data not available because sample size is insufficient.","~","","~","37.645970271","-84.774971048","OWS","OWS1","Q036","","Race/Ethnicity","RACE","Other","RACEOTH","","","","","","","","","21","","","",""
"8355","2012","2012","2012","LA","Louisiana","BRFSS","Obesity / Weight Status","Obesity / Weight Status","Percent of adults aged 18 years and older who have obesity †","","","VALUE","Value","25.6","","","13.7","42.7","59","31.312660644","-92.445680071","OWS","OWS1","Q036","","Race/Ethnicity","RACE","Other","RACEOTH","","","","","","","","","22","","","",""
"32757","2012","2012","2012","ME","Maine","BRFSS","Obesity / Weight Status","Obesity / Weight Status","Percent of adults aged 18 years and older who have obesity †","","","VALUE","Value","~","~","Data not available because sample size is insufficient.","~","","~","45.254228894001","-68.985031336","OWS","OWS1","Q036","","Race/Ethnicity","RACE","Other","RACEOTH","","","","","","","","","23","","","",""
"36906","2012","2012","2012","MD","Maryland","BRFSS","Obesity / Weight Status","Obesity / Weight Status","Percent of adults aged 18 years and older who have obesity †","","","VALUE","Value","16.9","","","10.6","25.9","112","39.290580964","-76.609260111","OWS","OWS1","Q036","","Race/Ethnicity","RACE","Other","RACEOTH","","","","","","","","","24","","","",""
"16445","2012","2012","2012","MA","Massachusetts","BRFSS","Obesity / Weight Status","Obesity / Weight Status","Percent of adults aged 18 years and older who have obesity †","","","VALUE","Value","25.2","","","19.0","32.7","414","42.27687047","-72.082690675","OWS","OWS1","Q036","","Race/Ethnicity","RACE","Other","RACEOTH","","","","","","","","","25","","","",""
"12020","2012","2012","2012","MI","Michigan","BRFSS","Obesity / Weight Status","Obesity / Weight Status","Percent of adults aged 18 years and older who have obesity †","","","VALUE","Value","~","~","Data not available because sample size is insufficient.","~","","~","44.661319543001","-84.71439027","OWS","OWS1","Q036","","Race/Ethnicity","RACE","Other","RACEOTH","","","","","","","","","26","","","",""
"31699","2012","2012","2012","MN","Minnesota","BRFSS","Obesity / Weight Status","Obesity / Weight Status","Percent of adults aged 18 years and older who have obesity †","","","VALUE","Value","32.7","","","21.5","46.2","91","46.355648736","-94.794200503","OWS","OWS1","Q036","","Race/Ethnicity","RACE","Other","RACEOTH","","","","","","","","","27","","","",""
"27343","2012","2012","2012","MS","Mississippi","BRFSS","Obesity / Weight Status","Obesity / Weight Status","Percent of adults aged 18 years and older who have obesity †","","","VALUE","Value","~","~","Data not available because sample size is insufficient.","~","","~","32.745510099","-89.538030825","OWS","OWS1","Q036","","Race/Ethnicity","RACE","Other","RACEOTH","","","","","","","","","28","","","",""
"19359","2012","2012","2012","MO","Missouri","BRFSS","Obesity / Weight Status","Obesity / Weight Status","Percent of adults aged 18 years and older who have obesity †","","","VALUE","Value","~","~","Data not available because sample size is insufficient.","~","","~","38.635790776","-92.566300053","OWS","OWS1","Q036","","Race/Ethnicity","RACE","Other","RACEOTH","","","","","","","","","29","","","",""
"10503","2012","2012","2012","MT","Montana","BRFSS","Obesity / Weight Status","Obesity / Weight Status","Percent of adults aged 18 years and older who have obesity †","","","VALUE","Value","~","~","Data not available because sample size is insufficient.","~","","~","47.066528972","-109.424420645","OWS","OWS1","Q036","","Race/Ethnicity","RACE","Other","RACEOTH","","","","","","","","","30","","","",""
"24572","2012","2012","2012","NE","Nebraska","BRFSS","Obesity / Weight Status","Obesity / Weight Status","Percent of adults aged 18 years and older who have obesity †","","","VALUE","Value","31.6","","","18.3","48.6","61","41.641040988001","-99.365720623","OWS","OWS1","Q036","","Race/Ethnicity","RACE","Other","RACEOTH","","","","","","","","","31","","","",""
"28478","2012","2012","2012","NV","Nevada","BRFSS","Obesity / Weight Status","Obesity / Weight Status","Percent of adults aged 18 years and older who have obesity †","","","VALUE","Value","27.0","","","14.9","43.7","88","39.49324039","-117.071840564","OWS","OWS1","Q036","","Race/Ethnicity","RACE","Other","RACEOTH","","","","","","","","","32","","","",""
"20526","2012","2012","2012","NH","New Hampshire","BRFSS","Obesity / Weight Status","Obesity / Weight Status","Percent of adults aged 18 years and older who have obesity †","","","VALUE","Value","~","~","Data not available because sample size is insufficient.","~","","~","43.655950113","-71.50036092","OWS","OWS1","Q036","","Race/Ethnicity","RACE","Other","RACEOTH","","","","","","","","","33","","","",""
"25443","2012","2012","2012","NJ","New Jersey","BRFSS","Obesity / Weight Status","Obesity / Weight Status","Percent of adults aged 18 years and older who have obesity †","","","VALUE","Value","22.5","","","14.7","33.0","144","40.130570048","-74.273691288","OWS","OWS1","Q036","","Race/Ethnicity","RACE","Other","RACEOTH","","","","","","","","","34","","","",""
"25374","2012","2012","2012","NM","New Mexico","BRFSS","Obesity / Weight Status","Obesity / Weight Status","Percent of adults aged 18 years and older who have obesity †","","","VALUE","Value","21.0","","","11.5","35.2","81","34.520880952","-106.240580985","OWS","OWS1","Q036","","Race/Ethnicity","RACE","Other","RACEOTH","","","","","","","","","35","","","",""
"5120","2012","2012","2012","NY","New York","BRFSS","Obesity / Weight Status","Obesity / Weight Status","Percent of adults aged 18 years and older who have obesity †","","","VALUE","Value","~","~","Data not available because sample size is insufficient.","~","","~","42.827001032","-75.543970427","OWS","OWS1","Q036","","Race/Ethnicity","RACE","Other","RACEOTH","","","","","","","","","36","","","",""
"22938","2012","2012","2012","NC","North Carolina","BRFSS","Obesity / Weight Status","Obesity / Weight Status","Percent of adults aged 18 years and older who have obesity †","","","VALUE","Value","25.7","","","18.0","35.3","139","35.466220975","-79.159250463","OWS","OWS1","Q036","","Race/Ethnicity","RACE","Other","RACEOTH","","","","","","","","","37","","","",""
"16535","2012","2012","2012","ND","North Dakota","BRFSS","Obesity / Weight Status","Obesity / Weight Status","Percent of adults aged 18 years and older who have obesity †","","","VALUE","Value","~","~","Data not available because sample size is insufficient.","~","","~","47.475319779","-100.118421049","OWS","OWS1","Q036","","Race/Ethnicity","RACE","Other","RACEOTH","","","","","","","","","38","","","",""
"23016","2012","2012","2012","OH","Ohio","BRFSS","Obesity / Weight Status","Obesity / Weight Status","Percent of adults aged 18 years and older who have obesity †","","","VALUE","Value","25.5","","","15.3","39.2","91","40.060210141","-82.404260056","OWS","OWS1","Q036","","Race/Ethnicity","RACE","Other","RACEOTH","","","","","","","","","39","","","",""
"31561","2012","2012","2012","OK","Oklahoma","BRFSS","Obesity / Weight Status","Obesity / Weight Status","Percent of adults aged 18 years and older who have obesity †","","","VALUE","Value","~","~","Data not available because sample size is insufficient.","~","","~","35.472031356","-97.521070214","OWS","OWS1","Q036","","Race/Ethnicity","RACE","Other","RACEOTH","","","","","","","","","40","","","",""
"27945","2012","2012","2012","OR","Oregon","BRFSS","Obesity / Weight Status","Obesity / Weight Status","Percent of adults aged 18 years and older who have obesity †","","","VALUE","Value","~","~","Data not available because sample size is insufficient.","~","","~","44.567449424","-120.155031326","OWS","OWS1","Q036","","Race/Ethnicity","RACE","Other","RACEOTH","","","","","","","","","41","","","",""
"32797","2012","2012","2012","PA","Pennsylvania","BRFSS","Obesity / Weight Status","Obesity / Weight Status","Percent of adults aged 18 years and older who have obesity †","","","VALUE","Value","~","~","Data not available because sample size is insufficient.","~","","~","40.793730152","-77.860700294","OWS","OWS1","Q036","","Race/Ethnicity","RACE","Other","RACEOTH","","","","","","","","","42","","","",""
"29507","2012","2012","2012","RI","Rhode Island","BRFSS","Obesity / Weight Status","Obesity / Weight Status","Percent of adults aged 18 years and older who have obesity †","","","VALUE","Value","~","~","Data not available because sample size is insufficient.","~","","~","41.708280193","-71.522470314","OWS","OWS1","Q036","","Race/Ethnicity","RACE","Other","RACEOTH","","","","","","","","","44","","","",""
"16597","2012","2012","2012","SC","South Carolina","BRFSS","Obesity / Weight Status","Obesity / Weight Status","Percent of adults aged 18 years and older who have obesity †","","","VALUE","Value","30.8","","","18.0","47.5","69","33.998821303","-81.045371207","OWS","OWS1","Q036","","Race/Ethnicity","RACE","Other","RACEOTH","","","","","","","","","45","","","",""
"24712","2012","2012","2012","SD","South Dakota","BRFSS","Obesity / Weight Status","Obesity / Weight Status","Percent of adults aged 18 years and older who have obesity †","","","VALUE","Value","~","~","Data not available because sample size is insufficient.","~","","~","44.353130053","-100.373530637","OWS","OWS1","Q036","","Race/Ethnicity","RACE","Other","RACEOTH","","","","","","","","","46","","","",""
"33939","2012","2012","2012","TN","Tennessee","BRFSS","Obesity / Weight Status","Obesity / Weight Status","Percent of adults aged 18 years and older who have obesity †","","","VALUE","Value","~","~","Data not available because sample size is insufficient.","~","","~","35.68094058","-85.774490914","OWS","OWS1","Q036","","Race/Ethnicity","RACE","Other","RACEOTH","","","","","","","","","47","","","",""
"2675","2012","2012","2012","TX","Texas","BRFSS","Obesity / Weight Status","Obesity / Weight Status","Percent of adults aged 18 years and older who have obesity †","","","VALUE","Value","~","~","Data not available because sample size is insufficient.","~","","~","31.827240407","-99.426770206","OWS","OWS1","Q036","","Race/Ethnicity","RACE","Other","RACEOTH","","","","","","","","","48","","","",""
"12776","2012","2012","2012","UT","Utah","BRFSS","Obesity / Weight Status","Obesity / Weight Status","Percent of adults aged 18 years and older who have obesity †","","","VALUE","Value","15.6","","","9.2","25.4","90","39.360700171","-111.587130635","OWS","OWS1","Q036","","Race/Ethnicity","RACE","Other","RACEOTH","","","","","","","","","49","","","",""
"35501","2012","2012","2012","VT","Vermont","BRFSS","Obesity / Weight Status","Obesity / Weight Status","Percent of adults aged 18 years and older who have obesity †","","","VALUE","Value","~","~","Data not available because sample size is insufficient.","~","","~","43.625381239","-72.517640791","OWS","OWS1","Q036","","Race/Ethnicity","RACE","Other","RACEOTH","","","","","","","","","50","","","",""
"34498","2012","2012","2012","VA","Virginia","BRFSS","Obesity / Weight Status","Obesity / Weight Status","Percent of adults aged 18 years and older who have obesity †","","","VALUE","Value","22.0","","","13.1","34.7","77","37.542680674","-78.457890463","OWS","OWS1","Q036","","Race/Ethnicity","RACE","Other","RACEOTH","","","","","","","","","51","","","",""
"29683","2012","2012","2012","WA","Washington","BRFSS","Obesity / Weight Status","Obesity / Weight Status","Percent of adults aged 18 years and older who have obesity †","","","VALUE","Value","31.6","","","23.7","40.7","170","47.522278629","-120.47001079","OWS","OWS1","Q036","","Race/Ethnicity","RACE","Other","RACEOTH","","","","","","","","","53","","","",""
"1826","2012","2012","2012","WV","West Virginia","BRFSS","Obesity / Weight Status","Obesity / Weight Status","Percent of adults aged 18 years and older who have obesity †","","","VALUE","Value","~","~","Data not available because sample size is insufficient.","~","","~","38.665510202","-80.712640135","OWS","OWS1","Q036","","Race/Ethnicity","RACE","Other","RACEOTH","","","","","","","","","54","","","",""
"26606","2012","2012","2012","WI","Wisconsin","BRFSS","Obesity / Weight Status","Obesity / Weight Status","Percent of adults aged 18 years and older who have obesity †","","","VALUE","Value","~","~","Data not available because sample size is insufficient.","~","","~","44.393191174","-89.816370742","OWS","OWS1","Q036","","Race/Ethnicity","RACE","Other","RACEOTH","","","","","","","","","55","","","",""
"20700","2012","2012","2012","WY","Wyoming","BRFSS","Obesity / Weight Status","Obesity / Weight Status","Percent of adults aged 18 years and older who have obesity †","","","VALUE","Value","~","~","Data not available because sample size is insufficient.","~","","~","43.235541343","-108.109830353","OWS","OWS1","Q036","","Race/Ethnicity","RACE","Other","RACEOTH","","","","","","","","","56","","","",""
"","","","","","","","","","","","","","","","","","","","","","","","","","","","","","","","","","","","","","","","~","Data not available because sample size is insufficient.","","Footnote"
"","","","","","","","","","","","","","","","","","","","","","","","","","","","","","","","","","","","","","","","†","Obesity is defined as body mass index (BMI) =30.0; BMI was calculated from self-reported weight and height (weight [kg]/ height [m²). Respondents reporting weight< 50 pounds or =650 pounds; height< 3 feet or =8 feet; or BMI:<12 or =100 were excluded. Pregnant respondents were also excluded.","","Footnote"
"","","","","","","","","","","","","","","","","","","","","","","","","","","","","","","","","","","","","","","","","Behavioral Risk Factor Surveillance System (BRFSS) - http://www.cdc.gov/brfss/","https://www.cdc.gov/brfss/","Data Source"
"","","","","","","","","","","","","","","","","","","","","","","","","","","","","","","","","","","","","","","","","Centers for Disease Control and Prevention. National Center for Chronic Disease Prevention and Health Promotion, Division of Nutrition, Physical Activity, and Obesity. Data, Trend and Maps [online].","/nccdphp/dnpao/data-trends-maps/index.html","Suggested Citation"
"","","","","","","","","","","","","","","","","","","","","","","","","","","","","","","","","","","","","","","","","Breastfeeding","/breastfeeding/index.htm","Related Links"
"","","","","","","","","","","","","","","","","","","","","","","","","","","","","","","","","","","","","","","","","Division of Nutrition, Physical Activity, and Obesity","/nccdphp/dnpao/index.html","Related Links"
"","","","","","","","","","","","","","","","","","","","","","","","","","","","","","","","","","","","","","","","","Physical Activity","/physicalactivity/index.html","Related Links"
"","","","","","","","","","","","","","","","","","","","","","","","","","","","","","","","","","","","","","","","","Chronic Disease Prevention and Health Promotion","/chronicdisease/index.htm","Related Links"
"","","","","","","","","","","","","","","","","","","","","","","","","","","","","","","","","","","","","","","","","Overweight and Obesity","/obesity/index.html","Related Links"
"","","","","","","","","","","","","","","","","","","","","","","","","","","","","","","","","","","","","","","","","State and Local Programs","/nccdphp/dnpao/state-local-programs/index.html","Related Links"
