"ID","YearStart","YearEnd","Description","LocationAbbr","LocationDesc","DataSource","Class","Topic","Question","Response","Data_Value_Unit","DataValueTypeId","Data_Value_Type","Data_Value","Data_Value_Footnote_Symbol","Data_Value_Footnote","Low_Confidence_Limit","High_Confidence_Limit","Sample_Size","GeoLocation_Lat","GeoLocation_Long","ClassId","TopicId","QuestionId","ResponseId","StratficationCategory1","StratificationCategoryId1","Stratification1","StratificationId1","StratificationCategory2","StratificationCategoryId2","Stratification2","StratificationId2","StratificationCategory3","StratificationCategoryId3","Stratification3","StratificationId3","LocationDisplayOrder","FootnoteSymbol","FootnoteText","URL","FootnoteHeading"
"503","2012","2012","2012","US","National","BRFSS","Obesity / Weight Status","Obesity / Weight Status","Percent of adults aged 18 years and older who have obesity †","","","VALUE","Value","25.8","","","21.0","31.4","950","","","OWS","OWS1","Q036","","Race/Ethnicity","RACE","Hawaiian / Pacific Islander","RACEHPI","","","","","","","","","0","","","",""
"39876","2012","2012","2012","AL","Alabama","BRFSS","Obesity / Weight Status","Obesity / Weight Status","Percent of adults aged 18 years and older who have obesity †","","","VALUE","Value","~","~","Data not available because sample size is insufficient.","~","","~","32.840571122","-86.631860762","OWS","OWS1","Q036","","Race/Ethnicity","RACE","Hawaiian / Pacific Islander","RACEHPI","","","","","","","","","1","","","",""
"2824","2012","2012","2012","AK","Alaska","BRFSS","Obesity / Weight Status","Obesity / Weight Status","Percent of adults aged 18 years and older who have obesity †","","","VALUE","Value","~","~","Data not available because sample size is insufficient.","~","","~","64.845079957001","-147.722059036","OWS","OWS1","Q036","","Race/Ethnicity","RACE","Hawaiian / Pacific Islander","RACEHPI","","","","","","","","","2","","","",""
"9720","2012","2012","2012","AZ","Arizona","BRFSS","Obesity / Weight Status","Obesity / Weight Status","Percent of adults aged 18 years and older who have obesity †","","","VALUE","Value","~","~","Data not available because sample size is insufficient.","~","","~","34.86597028","-111.763811277","OWS","OWS1","Q036","","Race/Ethnicity","RACE","Hawaiian / Pacific Islander","RACEHPI","","","","","","","","","4","","","",""
"38223","2012","2012","2012","AR","Arkansas","BRFSS","Obesity / Weight Status","Obesity / Weight Status","Percent of adults aged 18 years and older who have obesity †","","","VALUE","Value","~","~","Data not available because sample size is insufficient.","~","","~","34.748650124","-92.274490743","OWS","OWS1","Q036","","Race/Ethnicity","RACE","Hawaiian / Pacific Islander","RACEHPI","","","","","","","","","5","","","",""
"1683","2012","2012","2012","CA","California","BRFSS","Obesity / Weight Status","Obesity / Weight Status","Percent of adults aged 18 years and older who have obesity †","","","VALUE","Value","31.4","","","20.3","45.0","86","37.638640123","-120.999999538","OWS","OWS1","Q036","","Race/Ethnicity","RACE","Hawaiian / Pacific Islander","RACEHPI","","","","","","","","","6","","","",""
"39159","2012","2012","2012","CO","Colorado","BRFSS","Obesity / Weight Status","Obesity / Weight Status","Percent of adults aged 18 years and older who have obesity †","","","VALUE","Value","~","~","Data not available because sample size is insufficient.","~","","~","38.843840757","-106.133610921","OWS","OWS1","Q036","","Race/Ethnicity","RACE","Hawaiian / Pacific Islander","RACEHPI","","","","","","","","","8","","","",""
"30066","2012","2012","2012","CT","Connecticut","BRFSS","Obesity / Weight Status","Obesity / Weight Status","Percent of adults aged 18 years and older who have obesity †","","","VALUE","Value","~","~","Data not available because sample size is insufficient.","~","","~","41.56266102","-72.649840952","OWS","OWS1","Q036","","Race/Ethnicity","RACE","Hawaiian / Pacific Islander","RACEHPI","","","","","","","","","9","","","",""
"36424","2012","2012","2012","DE","Delaware","BRFSS","Obesity / Weight Status","Obesity / Weight Status","Percent of adults aged 18 years and older who have obesity †","","","VALUE","Value","~","~","Data not available because sample size is insufficient.","~","","~","39.008830667","-75.577741168","OWS","OWS1","Q036","","Race/Ethnicity","RACE","Hawaiian / Pacific Islander","RACEHPI","","","","","","","","","10","","","",""
"27233","2012","2012","2012","DC","District of Columbia","BRFSS","Obesity / Weight Status","Obesity / Weight Status","Percent of adults aged 18 years and older who have obesity †","","","VALUE","Value","~","~","Data not available because sample size is insufficient.","~","","~","38.890371385","-77.031961127","OWS","OWS1","Q036","","Race/Ethnicity","RACE","Hawaiian / Pacific Islander","RACEHPI","","","","","","","","","11","","","",""
"24427","2012","2012","2012","FL","Florida","BRFSS","Obesity / Weight Status","Obesity / Weight Status","Percent of adults aged 18 years and older who have obesity †","","","VALUE","Value","~","~","Data not available because sample size is insufficient.","~","","~","28.932040377","-81.928960539","OWS","OWS1","Q036","","Race/Ethnicity","RACE","Hawaiian / Pacific Islander","RACEHPI","","","","","","","","","12","","","",""
"6016","2012","2012","2012","GA","Georgia","BRFSS","Obesity / Weight Status","Obesity / Weight Status","Percent of adults aged 18 years and older who have obesity †","","","VALUE","Value","~","~","Data not available because sample size is insufficient.","~","","~","32.839681093","-83.627580346","OWS","OWS1","Q036","","Race/Ethnicity","RACE","Hawaiian / Pacific Islander","RACEHPI","","","","","","","","","13","","","",""
"5816","2012","2012","2012","HI","Hawaii","BRFSS","Obesity / Weight Status","Obesity / Weight Status","Percent of adults aged 18 years and older who have obesity †","","","VALUE","Value","51.4","","","41.2","61.4","256","21.304850435","-157.857749403","OWS","OWS1","Q036","","Race/Ethnicity","RACE","Hawaiian / Pacific Islander","RACEHPI","","","","","","","","","15","","","",""
"27009","2012","2012","2012","ID","Idaho","BRFSS","Obesity / Weight Status","Obesity / Weight Status","Percent of adults aged 18 years and older who have obesity †","","","VALUE","Value","~","~","Data not available because sample size is insufficient.","~","","~","43.682630005","-114.363730042","OWS","OWS1","Q036","","Race/Ethnicity","RACE","Hawaiian / Pacific Islander","RACEHPI","","","","","","","","","16","","","",""
"23822","2012","2012","2012","IL","Illinois","BRFSS","Obesity / Weight Status","Obesity / Weight Status","Percent of adults aged 18 years and older who have obesity †","","","VALUE","Value","~","~","Data not available because sample size is insufficient.","~","","~","40.485010283","-88.997710178","OWS","OWS1","Q036","","Race/Ethnicity","RACE","Hawaiian / Pacific Islander","RACEHPI","","","","","","","","","17","","","",""
"13365","2012","2012","2012","IN","Indiana","BRFSS","Obesity / Weight Status","Obesity / Weight Status","Percent of adults aged 18 years and older who have obesity †","","","VALUE","Value","~","~","Data not available because sample size is insufficient.","~","","~","39.766910452","-86.149960194","OWS","OWS1","Q036","","Race/Ethnicity","RACE","Hawaiian / Pacific Islander","RACEHPI","","","","","","","","","18","","","",""
"22911","2012","2012","2012","IA","Iowa","BRFSS","Obesity / Weight Status","Obesity / Weight Status","Percent of adults aged 18 years and older who have obesity †","","","VALUE","Value","~","~","Data not available because sample size is insufficient.","~","","~","42.469400913","-93.816490556","OWS","OWS1","Q036","","Race/Ethnicity","RACE","Hawaiian / Pacific Islander","RACEHPI","","","","","","","","","19","","","",""
"12991","2012","2012","2012","KS","Kansas","BRFSS","Obesity / Weight Status","Obesity / Weight Status","Percent of adults aged 18 years and older who have obesity †","","","VALUE","Value","~","~","Data not available because sample size is insufficient.","~","","~","38.3477403","-98.200781227","OWS","OWS1","Q036","","Race/Ethnicity","RACE","Hawaiian / Pacific Islander","RACEHPI","","","","","","","","","20","","","",""
"15906","2012","2012","2012","KY","Kentucky","BRFSS","Obesity / Weight Status","Obesity / Weight Status","Percent of adults aged 18 years and older who have obesity †","","","VALUE","Value","~","~","Data not available because sample size is insufficient.","~","","~","37.645970271","-84.774971048","OWS","OWS1","Q036","","Race/Ethnicity","RACE","Hawaiian / Pacific Islander","RACEHPI","","","","","","","","","21","","","",""
"13066","2012","2012","2012","LA","Louisiana","BRFSS","Obesity / Weight Status","Obesity / Weight Status","Percent of adults aged 18 years and older who have obesity †","","","VALUE","Value","~","~","Data not available because sample size is insufficient.","~","","~","31.312660644","-92.445680071","OWS","OWS1","Q036","","Race/Ethnicity","RACE","Hawaiian / Pacific Islander","RACEHPI","","","","","","","","","22","","","",""
"32625","2012","2012","2012","ME","Maine","BRFSS","Obesity / Weight Status","Obesity / Weight Status","Percent of adults aged 18 years and older who have obesity †","","","VALUE","Value","~","~","Data not available because sample size is insufficient.","~","","~","45.254228894001","-68.985031336","OWS","OWS1","Q036","","Race/Ethnicity","RACE","Hawaiian / Pacific Islander","RACEHPI","","","","","","","","","23","","","",""
"3942","2012","2012","2012","MD","Maryland","BRFSS","Obesity / Weight Status","Obesity / Weight Status","Percent of adults aged 18 years and older who have obesity †","","","VALUE","Value","~","~","Data not available because sample size is insufficient.","~","","~","39.290580964","-76.609260111","OWS","OWS1","Q036","","Race/Ethnicity","RACE","Hawaiian / Pacific Islander","RACEHPI","","","","","","","","","24","","","",""
"28550","2012","2012","2012","MA","Massachusetts","BRFSS","Obesity / Weight Status","Obesity / Weight Status","Percent of adults aged 18 years and older who have obesity †","","","VALUE","Value","~","~","Data not available because sample size is insufficient.","~","","~","42.27687047","-72.082690675","OWS","OWS1","Q036","","Race/Ethnicity","RACE","Hawaiian / Pacific Islander","RACEHPI","","","","","","","","","25","","","",""
"30881","2012","2012","2012","MI","Michigan","BRFSS","Obesity / Weight Status","Obesity / Weight Status","Percent of adults aged 18 years and older who have obesity †","","","VALUE","Value","~","~","Data not available because sample size is insufficient.","~","","~","44.661319543001","-84.71439027","OWS","OWS1","Q036","","Race/Ethnicity","RACE","Hawaiian / Pacific Islander","RACEHPI","","","","","","","","","26","","","",""
"12470","2012","2012","2012","MN","Minnesota","BRFSS","Obesity / Weight Status","Obesity / Weight Status","Percent of adults aged 18 years and older who have obesity †","","","VALUE","Value","~","~","Data not available because sample size is insufficient.","~","","~","46.355648736","-94.794200503","OWS","OWS1","Q036","","Race/Ethnicity","RACE","Hawaiian / Pacific Islander","RACEHPI","","","","","","","","","27","","","",""
"31690","2012","2012","2012","MS","Mississippi","BRFSS","Obesity / Weight Status","Obesity / Weight Status","Percent of adults aged 18 years and older who have obesity †","","","VALUE","Value","~","~","Data not available because sample size is insufficient.","~","","~","32.745510099","-89.538030825","OWS","OWS1","Q036","","Race/Ethnicity","RACE","Hawaiian / Pacific Islander","RACEHPI","","","","","","","","","28","","","",""
"24804","2012","2012","2012","MO","Missouri","BRFSS","Obesity / Weight Status","Obesity / Weight Status","Percent of adults aged 18 years and older who have obesity †","","","VALUE","Value","~","~","Data not available because sample size is insufficient.","~","","~","38.635790776","-92.566300053","OWS","OWS1","Q036","","Race/Ethnicity","RACE","Hawaiian / Pacific Islander","RACEHPI","","","","","","","","","29","","","",""
"20010","2012","2012","2012","MT","Montana","BRFSS","Obesity / Weight Status","Obesity / Weight Status","Percent of adults aged 18 years and older who have obesity †","","","VALUE","Value","~","~","Data not available because sample size is insufficient.","~","","~","47.066528972","-109.424420645","OWS","OWS1","Q036","","Race/Ethnicity","RACE","Hawaiian / Pacific Islander","RACEHPI","","","","","","","","","30","","","",""
"35540","2012","2012","2012","NE","Nebraska","BRFSS","Obesity / Weight Status","Obesity / Weight Status","Percent of adults aged 18 years and older who have obesity †","","","VALUE","Value","~","~","Data not available because sample size is insufficient.","~","","~","41.641040988001","-99.365720623","OWS","OWS1","Q036","","Race/Ethnicity","RACE","Hawaiian / Pacific Islander","RACEHPI","","","","","","","","","31","","","",""
"3540","2012","2012","2012","NV","Nevada","BRFSS","Obesity / Weight Status","Obesity / Weight Status","Percent of adults aged 18 years and older who have obesity †","","","VALUE","Value","~","~","Data not available because sample size is insufficient.","~","","~","39.49324039","-117.071840564","OWS","OWS1","Q036","","Race/Ethnicity","RACE","Hawaiian / Pacific Islander","RACEHPI","","","","","","","","","32","","","",""
"20395","2012","2012","2012","NH","New Hampshire","BRFSS","Obesity / Weight Status","Obesity / Weight Status","Percent of adults aged 18 years and older who have obesity †","","","VALUE","Value","~","~","Data not available because sample size is insufficient.","~","","~","43.655950113","-71.50036092","OWS","OWS1","Q036","","Race/Ethnicity","RACE","Hawaiian / Pacific Islander","RACEHPI","","","","","","","","","33","","","",""
"11243","2012","2012","2012","NJ","New Jersey","BRFSS","Obesity / Weight Status","Obesity / Weight Status","Percent of adults aged 18 years and older who have obesity †","","","VALUE","Value","~","~","Data not available because sample size is insufficient.","~","","~","40.130570048","-74.273691288","OWS","OWS1","Q036","","Race/Ethnicity","RACE","Hawaiian / Pacific Islander","RACEHPI","","","","","","","","","34","","","",""
"33694","2012","2012","2012","NM","New Mexico","BRFSS","Obesity / Weight Status","Obesity / Weight Status","Percent of adults aged 18 years and older who have obesity †","","","VALUE","Value","~","~","Data not available because sample size is insufficient.","~","","~","34.520880952","-106.240580985","OWS","OWS1","Q036","","Race/Ethnicity","RACE","Hawaiian / Pacific Islander","RACEHPI","","","","","","","","","35","","","",""
"17104","2012","2012","2012","NY","New York","BRFSS","Obesity / Weight Status","Obesity / Weight Status","Percent of adults aged 18 years and older who have obesity †","","","VALUE","Value","~","~","Data not available because sample size is insufficient.","~","","~","42.827001032","-75.543970427","OWS","OWS1","Q036","","Race/Ethnicity","RACE","Hawaiian / Pacific Islander","RACEHPI","","","","","","","","","36","","","",""
"25105","2012","2012","2012","NC","North Carolina","BRFSS","Obesity / Weight Status","Obesity / Weight Status","Percent of adults aged 18 years and older who have obesity †","","","VALUE","Value","~","~","Data not available because sample size is insufficient.","~","","~","35.466220975","-79.159250463","OWS","OWS1","Q036","","Race/Ethnicity","RACE","Hawaiian / Pacific Islander","RACEHPI","","","","","","","","","37","","","",""
"9749","2012","2012","2012","ND","North Dakota","BRFSS","Obesity / Weight Status","Obesity / Weight Status","Percent of adults aged 18 years and older who have obesity †","","","VALUE","Value","~","~","Data not available because sample size is insufficient.","~","","~","47.475319779","-100.118421049","OWS","OWS1","Q036","","Race/Ethnicity","RACE","Hawaiian / Pacific Islander","RACEHPI","","","","","","","","","38","","","",""
"7419","2012","2012","2012","OH","Ohio","BRFSS","Obesity / Weight Status","Obesity / Weight Status","Percent of adults aged 18 years and older who have obesity †","","","VALUE","Value","~","~","Data not available because sample size is insufficient.","~","","~","40.060210141","-82.404260056","OWS","OWS1","Q036","","Race/Ethnicity","RACE","Hawaiian / Pacific Islander","RACEHPI","","","","","","","","","39","","","",""
"38856","2012","2012","2012","OK","Oklahoma","BRFSS","Obesity / Weight Status","Obesity / Weight Status","Percent of adults aged 18 years and older who have obesity †","","","VALUE","Value","~","~","Data not available because sample size is insufficient.","~","","~","35.472031356","-97.521070214","OWS","OWS1","Q036","","Race/Ethnicity","RACE","Hawaiian / Pacific Islander","RACEHPI","","","","","","","","","40","","","",""
"27543","2012","2012","2012","OR","Oregon","BRFSS","Obesity / Weight Status","Obesity / Weight Status","Percent of adults aged 18 years and older who have obesity †","","","VALUE","Value","~","~","Data not available because sample size is insufficient.","~","","~","44.567449424","-120.155031326","OWS","OWS1","Q036","","Race/Ethnicity","RACE","Hawaiian / Pacific Islander","RACEHPI","","","","","","","","","41","","","",""
"16379","2012","2012","2012","PA","Pennsylvania","BRFSS","Obesity / Weight Status","Obesity / Weight Status","Percent of adults aged 18 years and older who have obesity †","","","VALUE","Value","~","~","Data not available because sample size is insufficient.","~","","~","40.793730152","-77.860700294","OWS","OWS1","Q036","","Race/Ethnicity","RACE","Hawaiian / Pacific Islander","RACEHPI","","","","","","","","","42","","","",""
"24801","2012","2012","2012","RI","Rhode Island","BRFSS","Obesity / Weight Status","Obesity / Weight Status","Percent of adults aged 18 years and older who have obesity †","","","VALUE","Value","~","~","Data not available because sample size is insufficient.","~","","~","41.708280193","-71.522470314","OWS","OWS1","Q036","","Race/Ethnicity","RACE","Hawaiian / Pacific Islander","RACEHPI","","","","","","","","","44","","","",""
"37906","2012","2012","2012","SC","South Carolina","BRFSS","Obesity / Weight Status","Obesity / Weight Status","Percent of adults aged 18 years and older who have obesity †","","","VALUE","Value","~","~","Data not available because sample size is insufficient.","~","","~","33.998821303","-81.045371207","OWS","OWS1","Q036","","Race/Ethnicity","RACE","Hawaiian / Pacific Islander","RACEHPI","","","","","","","","","45","","","",""
"33645","2012","2012","2012","SD","South Dakota","BRFSS","Obesity / Weight Status","Obesity / Weight Status","Percent of adults aged 18 years and older who have obesity †","","","VALUE","Value","~","~","Data not available because sample size is insufficient.","~","","~","44.353130053","-100.373530637","OWS","OWS1","Q036","","Race/Ethnicity","RACE","Hawaiian / Pacific Islander","RACEHPI","","","","","","","","","46","","","",""
"24580","2012","2012","2012","TN","Tennessee","BRFSS","Obesity / Weight Status","Obesity / Weight Status","Percent of adults aged 18 years and older who have obesity †","","","VALUE","Value","~","~","Data not available because sample size is insufficient.","~","","~","35.68094058","-85.774490914","OWS","OWS1","Q036","","Race/Ethnicity","RACE","Hawaiian / Pacific Islander","RACEHPI","","","","","","","","","47","","","",""
"34847","2012","2012","2012","TX","Texas","BRFSS","Obesity / Weight Status","Obesity / Weight Status","Percent of adults aged 18 years and older who have obesity †","","","VALUE","Value","~","~","Data not available because sample size is insufficient.","~","","~","31.827240407","-99.426770206","OWS","OWS1","Q036","","Race/Ethnicity","RACE","Hawaiian / Pacific Islander","RACEHPI","","","","","","","","","48","","","",""
"9515","2012","2012","2012","UT","Utah","BRFSS","Obesity / Weight Status","Obesity / Weight Status","Percent of adults aged 18 years and older who have obesity †","","","VALUE","Value","~","~","Data not available because sample size is insufficient.","~","","~","39.360700171","-111.587130635","OWS","OWS1","Q036","","Race/Ethnicity","RACE","Hawaiian / Pacific Islander","RACEHPI","","","","","","","","","49","","","",""
"19706","2012","2012","2012","VT","Vermont","BRFSS","Obesity / Weight Status","Obesity / Weight Status","Percent of adults aged 18 years and older who have obesity †","","","VALUE","Value","~","~","Data not available because sample size is insufficient.","~","","~","43.625381239","-72.517640791","OWS","OWS1","Q036","","Race/Ethnicity","RACE","Hawaiian / Pacific Islander","RACEHPI","","","","","","","","","50","","","",""
"17497","2012","2012","2012","VA","Virginia","BRFSS","Obesity / Weight Status","Obesity / Weight Status","Percent of adults aged 18 years and older who have obesity †","","","VALUE","Value","~","~","Data not available because sample size is insufficient.","~","","~","37.542680674","-78.457890463","OWS","OWS1","Q036","","Race/Ethnicity","RACE","Hawaiian / Pacific Islander","RACEHPI","","","","","","","","","51","","","",""
"27770","2012","2012","2012","WA","Washington","BRFSS","Obesity / Weight Status","Obesity / Weight Status","Percent of adults aged 18 years and older who have obesity †","","","VALUE","Value","23.8","","","14.1","37.3","69","47.522278629","-120.47001079","OWS","OWS1","Q036","","Race/Ethnicity","RACE","Hawaiian / Pacific Islander","RACEHPI","","","","","","","","","53","","","",""
"23339","2012","2012","2012","WV","West Virginia","BRFSS","Obesity / Weight Status","Obesity / Weight Status","Percent of adults aged 18 years and older who have obesity †","","","VALUE","Value","~","~","Data not available because sample size is insufficient.","~","","~","38.665510202","-80.712640135","OWS","OWS1","Q036","","Race/Ethnicity","RACE","Hawaiian / Pacific Islander","RACEHPI","","","","","","","","","54","","","",""
"14547","2012","2012","2012","WI","Wisconsin","BRFSS","Obesity / Weight Status","Obesity / Weight Status","Percent of adults aged 18 years and older who have obesity †","","","VALUE","Value","~","~","Data not available because sample size is insufficient.","~","","~","44.393191174","-89.816370742","OWS","OWS1","Q036","","Race/Ethnicity","RACE","Hawaiian / Pacific Islander","RACEHPI","","","","","","","","","55","","","",""
"29694","2012","2012","2012","WY","Wyoming","BRFSS","Obesity / Weight Status","Obesity / Weight Status","Percent of adults aged 18 years and older who have obesity †","","","VALUE","Value","~","~","Data not available because sample size is insufficient.","~","","~","43.235541343","-108.109830353","OWS","OWS1","Q036","","Race/Ethnicity","RACE","Hawaiian / Pacific Islander","RACEHPI","","","","","","","","","56","","","",""
"","","","","","","","","","","","","","","","","","","","","","","","","","","","","","","","","","","","","","","","~","Data not available because sample size is insufficient.","","Footnote"
"","","","","","","","","","","","","","","","","","","","","","","","","","","","","","","","","","","","","","","","†","Obesity is defined as body mass index (BMI) =30.0; BMI was calculated from self-reported weight and height (weight [kg]/ height [m²). Respondents reporting weight< 50 pounds or =650 pounds; height< 3 feet or =8 feet; or BMI:<12 or =100 were excluded. Pregnant respondents were also excluded.","","Footnote"
"","","","","","","","","","","","","","","","","","","","","","","","","","","","","","","","","","","","","","","","","Behavioral Risk Factor Surveillance System (BRFSS) - http://www.cdc.gov/brfss/","https://www.cdc.gov/brfss/","Data Source"
"","","","","","","","","","","","","","","","","","","","","","","","","","","","","","","","","","","","","","","","","Centers for Disease Control and Prevention. National Center for Chronic Disease Prevention and Health Promotion, Division of Nutrition, Physical Activity, and Obesity. Data, Trend and Maps [online].","/nccdphp/dnpao/data-trends-maps/index.html","Suggested Citation"
"","","","","","","","","","","","","","","","","","","","","","","","","","","","","","","","","","","","","","","","","Breastfeeding","/breastfeeding/index.htm","Related Links"
"","","","","","","","","","","","","","","","","","","","","","","","","","","","","","","","","","","","","","","","","Division of Nutrition, Physical Activity, and Obesity","/nccdphp/dnpao/index.html","Related Links"
"","","","","","","","","","","","","","","","","","","","","","","","","","","","","","","","","","","","","","","","","Physical Activity","/physicalactivity/index.html","Related Links"
"","","","","","","","","","","","","","","","","","","","","","","","","","","","","","","","","","","","","","","","","Chronic Disease Prevention and Health Promotion","/chronicdisease/index.htm","Related Links"
"","","","","","","","","","","","","","","","","","","","","","","","","","","","","","","","","","","","","","","","","Overweight and Obesity","/obesity/index.html","Related Links"
"","","","","","","","","","","","","","","","","","","","","","","","","","","","","","","","","","","","","","","","","State and Local Programs","/nccdphp/dnpao/state-local-programs/index.html","Related Links"
