"ID","YearStart","YearEnd","Description","LocationAbbr","LocationDesc","DataSource","Class","Topic","Question","Response","Data_Value_Unit","DataValueTypeId","Data_Value_Type","Data_Value","Data_Value_Footnote_Symbol","Data_Value_Footnote","Low_Confidence_Limit","High_Confidence_Limit","Sample_Size","GeoLocation_Lat","GeoLocation_Long","ClassId","TopicId","QuestionId","ResponseId","StratficationCategory1","StratificationCategoryId1","Stratification1","StratificationId1","StratificationCategory2","StratificationCategoryId2","Stratification2","StratificationId2","StratificationCategory3","StratificationCategoryId3","Stratification3","StratificationId3","LocationDisplayOrder","FootnoteSymbol","FootnoteText","URL","FootnoteHeading"
"539","2012","2012","2012","US","National","BRFSS","Obesity / Weight Status","Obesity / Weight Status","Percent of adults aged 18 years and older who have obesity †","","","VALUE","Value","9.7","","","8.5","11.2","8,252","","","OWS","OWS1","Q036","","Race/Ethnicity","RACE","Asian","RACEASN","","","","","","","","","0","","","",""
"14431","2012","2012","2012","AL","Alabama","BRFSS","Obesity / Weight Status","Obesity / Weight Status","Percent of adults aged 18 years and older who have obesity †","","","VALUE","Value","~","~","Data not available because sample size is insufficient.","~","","~","32.840571122","-86.631860762","OWS","OWS1","Q036","","Race/Ethnicity","RACE","Asian","RACEASN","","","","","","","","","1","","","",""
"12732","2012","2012","2012","AK","Alaska","BRFSS","Obesity / Weight Status","Obesity / Weight Status","Percent of adults aged 18 years and older who have obesity †","","","VALUE","Value","2.3","","","0.9","5.7","82","64.845079957001","-147.722059036","OWS","OWS1","Q036","","Race/Ethnicity","RACE","Asian","RACEASN","","","","","","","","","2","","","",""
"21866","2012","2012","2012","AZ","Arizona","BRFSS","Obesity / Weight Status","Obesity / Weight Status","Percent of adults aged 18 years and older who have obesity †","","","VALUE","Value","4.3","","","1.2","13.8","74","34.86597028","-111.763811277","OWS","OWS1","Q036","","Race/Ethnicity","RACE","Asian","RACEASN","","","","","","","","","4","","","",""
"25012","2012","2012","2012","AR","Arkansas","BRFSS","Obesity / Weight Status","Obesity / Weight Status","Percent of adults aged 18 years and older who have obesity †","","","VALUE","Value","~","~","Data not available because sample size is insufficient.","~","","~","34.748650124","-92.274490743","OWS","OWS1","Q036","","Race/Ethnicity","RACE","Asian","RACEASN","","","","","","","","","5","","","",""
"22376","2012","2012","2012","CA","California","BRFSS","Obesity / Weight Status","Obesity / Weight Status","Percent of adults aged 18 years and older who have obesity †","","","VALUE","Value","10.3","","","7.9","13.5","799","37.638640123","-120.999999538","OWS","OWS1","Q036","","Race/Ethnicity","RACE","Asian","RACEASN","","","","","","","","","6","","","",""
"19969","2012","2012","2012","CO","Colorado","BRFSS","Obesity / Weight Status","Obesity / Weight Status","Percent of adults aged 18 years and older who have obesity †","","","VALUE","Value","9.2","","","4.6","17.7","131","38.843840757","-106.133610921","OWS","OWS1","Q036","","Race/Ethnicity","RACE","Asian","RACEASN","","","","","","","","","8","","","",""
"26158","2012","2012","2012","CT","Connecticut","BRFSS","Obesity / Weight Status","Obesity / Weight Status","Percent of adults aged 18 years and older who have obesity †","","","VALUE","Value","5.6","","","2.6","11.5","155","41.56266102","-72.649840952","OWS","OWS1","Q036","","Race/Ethnicity","RACE","Asian","RACEASN","","","","","","","","","9","","","",""
"15488","2012","2012","2012","DE","Delaware","BRFSS","Obesity / Weight Status","Obesity / Weight Status","Percent of adults aged 18 years and older who have obesity †","","","VALUE","Value","2.9","","","0.6","13.4","55","39.008830667","-75.577741168","OWS","OWS1","Q036","","Race/Ethnicity","RACE","Asian","RACEASN","","","","","","","","","10","","","",""
"21595","2012","2012","2012","DC","District of Columbia","BRFSS","Obesity / Weight Status","Obesity / Weight Status","Percent of adults aged 18 years and older who have obesity †","","","VALUE","Value","4.6","","","1.7","11.8","77","38.890371385","-77.031961127","OWS","OWS1","Q036","","Race/Ethnicity","RACE","Asian","RACEASN","","","","","","","","","11","","","",""
"7496","2012","2012","2012","FL","Florida","BRFSS","Obesity / Weight Status","Obesity / Weight Status","Percent of adults aged 18 years and older who have obesity †","","","VALUE","Value","12.1","","","5.1","26.0","100","28.932040377","-81.928960539","OWS","OWS1","Q036","","Race/Ethnicity","RACE","Asian","RACEASN","","","","","","","","","12","","","",""
"18838","2012","2012","2012","GA","Georgia","BRFSS","Obesity / Weight Status","Obesity / Weight Status","Percent of adults aged 18 years and older who have obesity †","","","VALUE","Value","8.5","","","4.1","16.9","87","32.839681093","-83.627580346","OWS","OWS1","Q036","","Race/Ethnicity","RACE","Asian","RACEASN","","","","","","","","","13","","","",""
"1659","2012","2012","2012","HI","Hawaii","BRFSS","Obesity / Weight Status","Obesity / Weight Status","Percent of adults aged 18 years and older who have obesity †","","","VALUE","Value","16.7","","","14.4","19.3","2,329","21.304850435","-157.857749403","OWS","OWS1","Q036","","Race/Ethnicity","RACE","Asian","RACEASN","","","","","","","","","15","","","",""
"28439","2012","2012","2012","ID","Idaho","BRFSS","Obesity / Weight Status","Obesity / Weight Status","Percent of adults aged 18 years and older who have obesity †","","","VALUE","Value","~","~","Data not available because sample size is insufficient.","~","","~","43.682630005","-114.363730042","OWS","OWS1","Q036","","Race/Ethnicity","RACE","Asian","RACEASN","","","","","","","","","16","","","",""
"23332","2012","2012","2012","IL","Illinois","BRFSS","Obesity / Weight Status","Obesity / Weight Status","Percent of adults aged 18 years and older who have obesity †","","","VALUE","Value","7.1","","","3.1","15.1","137","40.485010283","-88.997710178","OWS","OWS1","Q036","","Race/Ethnicity","RACE","Asian","RACEASN","","","","","","","","","17","","","",""
"9629","2012","2012","2012","IN","Indiana","BRFSS","Obesity / Weight Status","Obesity / Weight Status","Percent of adults aged 18 years and older who have obesity †","","","VALUE","Value","14.7","","","6.2","30.9","61","39.766910452","-86.149960194","OWS","OWS1","Q036","","Race/Ethnicity","RACE","Asian","RACEASN","","","","","","","","","18","","","",""
"32463","2012","2012","2012","IA","Iowa","BRFSS","Obesity / Weight Status","Obesity / Weight Status","Percent of adults aged 18 years and older who have obesity †","","","VALUE","Value","5.4","","","1.6","16.5","53","42.469400913","-93.816490556","OWS","OWS1","Q036","","Race/Ethnicity","RACE","Asian","RACEASN","","","","","","","","","19","","","",""
"28506","2012","2012","2012","KS","Kansas","BRFSS","Obesity / Weight Status","Obesity / Weight Status","Percent of adults aged 18 years and older who have obesity †","","","VALUE","Value","11.0","","","5.5","20.6","111","38.3477403","-98.200781227","OWS","OWS1","Q036","","Race/Ethnicity","RACE","Asian","RACEASN","","","","","","","","","20","","","",""
"25792","2012","2012","2012","KY","Kentucky","BRFSS","Obesity / Weight Status","Obesity / Weight Status","Percent of adults aged 18 years and older who have obesity †","","","VALUE","Value","~","~","Data not available because sample size is insufficient.","~","","~","37.645970271","-84.774971048","OWS","OWS1","Q036","","Race/Ethnicity","RACE","Asian","RACEASN","","","","","","","","","21","","","",""
"18249","2012","2012","2012","LA","Louisiana","BRFSS","Obesity / Weight Status","Obesity / Weight Status","Percent of adults aged 18 years and older who have obesity †","","","VALUE","Value","~","~","Data not available because sample size is insufficient.","~","","~","31.312660644","-92.445680071","OWS","OWS1","Q036","","Race/Ethnicity","RACE","Asian","RACEASN","","","","","","","","","22","","","",""
"27329","2012","2012","2012","ME","Maine","BRFSS","Obesity / Weight Status","Obesity / Weight Status","Percent of adults aged 18 years and older who have obesity †","","","VALUE","Value","~","~","Data not available because sample size is insufficient.","~","","~","45.254228894001","-68.985031336","OWS","OWS1","Q036","","Race/Ethnicity","RACE","Asian","RACEASN","","","","","","","","","23","","","",""
"20396","2012","2012","2012","MD","Maryland","BRFSS","Obesity / Weight Status","Obesity / Weight Status","Percent of adults aged 18 years and older who have obesity †","","","VALUE","Value","8.6","","","5.0","14.4","222","39.290580964","-76.609260111","OWS","OWS1","Q036","","Race/Ethnicity","RACE","Asian","RACEASN","","","","","","","","","24","","","",""
"37574","2012","2012","2012","MA","Massachusetts","BRFSS","Obesity / Weight Status","Obesity / Weight Status","Percent of adults aged 18 years and older who have obesity †","","","VALUE","Value","5.7","","","3.8","8.6","424","42.27687047","-72.082690675","OWS","OWS1","Q036","","Race/Ethnicity","RACE","Asian","RACEASN","","","","","","","","","25","","","",""
"33154","2012","2012","2012","MI","Michigan","BRFSS","Obesity / Weight Status","Obesity / Weight Status","Percent of adults aged 18 years and older who have obesity †","","","VALUE","Value","14.8","","","8.0","25.8","98","44.661319543001","-84.71439027","OWS","OWS1","Q036","","Race/Ethnicity","RACE","Asian","RACEASN","","","","","","","","","26","","","",""
"19902","2012","2012","2012","MN","Minnesota","BRFSS","Obesity / Weight Status","Obesity / Weight Status","Percent of adults aged 18 years and older who have obesity †","","","VALUE","Value","11.7","","","6.4","20.6","141","46.355648736","-94.794200503","OWS","OWS1","Q036","","Race/Ethnicity","RACE","Asian","RACEASN","","","","","","","","","27","","","",""
"34223","2012","2012","2012","MS","Mississippi","BRFSS","Obesity / Weight Status","Obesity / Weight Status","Percent of adults aged 18 years and older who have obesity †","","","VALUE","Value","~","~","Data not available because sample size is insufficient.","~","","~","32.745510099","-89.538030825","OWS","OWS1","Q036","","Race/Ethnicity","RACE","Asian","RACEASN","","","","","","","","","28","","","",""
"39276","2012","2012","2012","MO","Missouri","BRFSS","Obesity / Weight Status","Obesity / Weight Status","Percent of adults aged 18 years and older who have obesity †","","","VALUE","Value","~","~","Data not available because sample size is insufficient.","~","","~","38.635790776","-92.566300053","OWS","OWS1","Q036","","Race/Ethnicity","RACE","Asian","RACEASN","","","","","","","","","29","","","",""
"32088","2012","2012","2012","MT","Montana","BRFSS","Obesity / Weight Status","Obesity / Weight Status","Percent of adults aged 18 years and older who have obesity †","","","VALUE","Value","~","~","Data not available because sample size is insufficient.","~","","~","47.066528972","-109.424420645","OWS","OWS1","Q036","","Race/Ethnicity","RACE","Asian","RACEASN","","","","","","","","","30","","","",""
"31666","2012","2012","2012","NE","Nebraska","BRFSS","Obesity / Weight Status","Obesity / Weight Status","Percent of adults aged 18 years and older who have obesity †","","","VALUE","Value","9.3","","","4.4","18.4","94","41.641040988001","-99.365720623","OWS","OWS1","Q036","","Race/Ethnicity","RACE","Asian","RACEASN","","","","","","","","","31","","","",""
"31255","2012","2012","2012","NV","Nevada","BRFSS","Obesity / Weight Status","Obesity / Weight Status","Percent of adults aged 18 years and older who have obesity †","","","VALUE","Value","20.7","","","12.2","32.9","131","39.49324039","-117.071840564","OWS","OWS1","Q036","","Race/Ethnicity","RACE","Asian","RACEASN","","","","","","","","","32","","","",""
"2088","2012","2012","2012","NH","New Hampshire","BRFSS","Obesity / Weight Status","Obesity / Weight Status","Percent of adults aged 18 years and older who have obesity †","","","VALUE","Value","2.0","","","0.6","6.9","60","43.655950113","-71.50036092","OWS","OWS1","Q036","","Race/Ethnicity","RACE","Asian","RACEASN","","","","","","","","","33","","","",""
"38649","2012","2012","2012","NJ","New Jersey","BRFSS","Obesity / Weight Status","Obesity / Weight Status","Percent of adults aged 18 years and older who have obesity †","","","VALUE","Value","7.9","","","5.6","10.9","597","40.130570048","-74.273691288","OWS","OWS1","Q036","","Race/Ethnicity","RACE","Asian","RACEASN","","","","","","","","","34","","","",""
"13811","2012","2012","2012","NM","New Mexico","BRFSS","Obesity / Weight Status","Obesity / Weight Status","Percent of adults aged 18 years and older who have obesity †","","","VALUE","Value","6.7","","","2.6","15.9","66","34.520880952","-106.240580985","OWS","OWS1","Q036","","Race/Ethnicity","RACE","Asian","RACEASN","","","","","","","","","35","","","",""
"5774","2012","2012","2012","NY","New York","BRFSS","Obesity / Weight Status","Obesity / Weight Status","Percent of adults aged 18 years and older who have obesity †","","","VALUE","Value","7.8","","","4.0","14.8","196","42.827001032","-75.543970427","OWS","OWS1","Q036","","Race/Ethnicity","RACE","Asian","RACEASN","","","","","","","","","36","","","",""
"6277","2012","2012","2012","NC","North Carolina","BRFSS","Obesity / Weight Status","Obesity / Weight Status","Percent of adults aged 18 years and older who have obesity †","","","VALUE","Value","11.0","","","5.1","22.2","102","35.466220975","-79.159250463","OWS","OWS1","Q036","","Race/Ethnicity","RACE","Asian","RACEASN","","","","","","","","","37","","","",""
"15515","2012","2012","2012","ND","North Dakota","BRFSS","Obesity / Weight Status","Obesity / Weight Status","Percent of adults aged 18 years and older who have obesity †","","","VALUE","Value","~","~","Data not available because sample size is insufficient.","~","","~","47.475319779","-100.118421049","OWS","OWS1","Q036","","Race/Ethnicity","RACE","Asian","RACEASN","","","","","","","","","38","","","",""
"35838","2012","2012","2012","OH","Ohio","BRFSS","Obesity / Weight Status","Obesity / Weight Status","Percent of adults aged 18 years and older who have obesity †","","","VALUE","Value","9.1","","","3.7","20.7","114","40.060210141","-82.404260056","OWS","OWS1","Q036","","Race/Ethnicity","RACE","Asian","RACEASN","","","","","","","","","39","","","",""
"32468","2012","2012","2012","OK","Oklahoma","BRFSS","Obesity / Weight Status","Obesity / Weight Status","Percent of adults aged 18 years and older who have obesity †","","","VALUE","Value","4.4","","","1.6","11.5","64","35.472031356","-97.521070214","OWS","OWS1","Q036","","Race/Ethnicity","RACE","Asian","RACEASN","","","","","","","","","40","","","",""
"31643","2012","2012","2012","OR","Oregon","BRFSS","Obesity / Weight Status","Obesity / Weight Status","Percent of adults aged 18 years and older who have obesity †","","","VALUE","Value","12.7","","","5.8","25.8","72","44.567449424","-120.155031326","OWS","OWS1","Q036","","Race/Ethnicity","RACE","Asian","RACEASN","","","","","","","","","41","","","",""
"25734","2012","2012","2012","PA","Pennsylvania","BRFSS","Obesity / Weight Status","Obesity / Weight Status","Percent of adults aged 18 years and older who have obesity †","","","VALUE","Value","9.0","","","5.4","14.5","198","40.793730152","-77.860700294","OWS","OWS1","Q036","","Race/Ethnicity","RACE","Asian","RACEASN","","","","","","","","","42","","","",""
"6245","2012","2012","2012","RI","Rhode Island","BRFSS","Obesity / Weight Status","Obesity / Weight Status","Percent of adults aged 18 years and older who have obesity †","","","VALUE","Value","6.9","","","2.3","19.2","54","41.708280193","-71.522470314","OWS","OWS1","Q036","","Race/Ethnicity","RACE","Asian","RACEASN","","","","","","","","","44","","","",""
"30636","2012","2012","2012","SC","South Carolina","BRFSS","Obesity / Weight Status","Obesity / Weight Status","Percent of adults aged 18 years and older who have obesity †","","","VALUE","Value","18.5","","","9.0","34.4","71","33.998821303","-81.045371207","OWS","OWS1","Q036","","Race/Ethnicity","RACE","Asian","RACEASN","","","","","","","","","45","","","",""
"16688","2012","2012","2012","SD","South Dakota","BRFSS","Obesity / Weight Status","Obesity / Weight Status","Percent of adults aged 18 years and older who have obesity †","","","VALUE","Value","~","~","Data not available because sample size is insufficient.","~","","~","44.353130053","-100.373530637","OWS","OWS1","Q036","","Race/Ethnicity","RACE","Asian","RACEASN","","","","","","","","","46","","","",""
"37054","2012","2012","2012","TN","Tennessee","BRFSS","Obesity / Weight Status","Obesity / Weight Status","Percent of adults aged 18 years and older who have obesity †","","","VALUE","Value","~","~","Data not available because sample size is insufficient.","~","","~","35.68094058","-85.774490914","OWS","OWS1","Q036","","Race/Ethnicity","RACE","Asian","RACEASN","","","","","","","","","47","","","",""
"11504","2012","2012","2012","TX","Texas","BRFSS","Obesity / Weight Status","Obesity / Weight Status","Percent of adults aged 18 years and older who have obesity †","","","VALUE","Value","6.6","","","3.6","11.9","184","31.827240407","-99.426770206","OWS","OWS1","Q036","","Race/Ethnicity","RACE","Asian","RACEASN","","","","","","","","","48","","","",""
"21581","2012","2012","2012","UT","Utah","BRFSS","Obesity / Weight Status","Obesity / Weight Status","Percent of adults aged 18 years and older who have obesity †","","","VALUE","Value","5.4","","","2.0","13.9","124","39.360700171","-111.587130635","OWS","OWS1","Q036","","Race/Ethnicity","RACE","Asian","RACEASN","","","","","","","","","49","","","",""
"34863","2012","2012","2012","VT","Vermont","BRFSS","Obesity / Weight Status","Obesity / Weight Status","Percent of adults aged 18 years and older who have obesity †","","","VALUE","Value","~","~","Data not available because sample size is insufficient.","~","","~","43.625381239","-72.517640791","OWS","OWS1","Q036","","Race/Ethnicity","RACE","Asian","RACEASN","","","","","","","","","50","","","",""
"26894","2012","2012","2012","VA","Virginia","BRFSS","Obesity / Weight Status","Obesity / Weight Status","Percent of adults aged 18 years and older who have obesity †","","","VALUE","Value","8.8","","","4.8","15.5","150","37.542680674","-78.457890463","OWS","OWS1","Q036","","Race/Ethnicity","RACE","Asian","RACEASN","","","","","","","","","51","","","",""
"9293","2012","2012","2012","WA","Washington","BRFSS","Obesity / Weight Status","Obesity / Weight Status","Percent of adults aged 18 years and older who have obesity †","","","VALUE","Value","9.1","","","6.0","13.6","395","47.522278629","-120.47001079","OWS","OWS1","Q036","","Race/Ethnicity","RACE","Asian","RACEASN","","","","","","","","","53","","","",""
"1884","2012","2012","2012","WV","West Virginia","BRFSS","Obesity / Weight Status","Obesity / Weight Status","Percent of adults aged 18 years and older who have obesity †","","","VALUE","Value","~","~","Data not available because sample size is insufficient.","~","","~","38.665510202","-80.712640135","OWS","OWS1","Q036","","Race/Ethnicity","RACE","Asian","RACEASN","","","","","","","","","54","","","",""
"4114","2012","2012","2012","WI","Wisconsin","BRFSS","Obesity / Weight Status","Obesity / Weight Status","Percent of adults aged 18 years and older who have obesity †","","","VALUE","Value","~","~","Data not available because sample size is insufficient.","~","","~","44.393191174","-89.816370742","OWS","OWS1","Q036","","Race/Ethnicity","RACE","Asian","RACEASN","","","","","","","","","55","","","",""
"27682","2012","2012","2012","WY","Wyoming","BRFSS","Obesity / Weight Status","Obesity / Weight Status","Percent of adults aged 18 years and older who have obesity †","","","VALUE","Value","~","~","Data not available because sample size is insufficient.","~","","~","43.235541343","-108.109830353","OWS","OWS1","Q036","","Race/Ethnicity","RACE","Asian","RACEASN","","","","","","","","","56","","","",""
"","","","","","","","","","","","","","","","","","","","","","","","","","","","","","","","","","","","","","","","~","Data not available because sample size is insufficient.","","Footnote"
"","","","","","","","","","","","","","","","","","","","","","","","","","","","","","","","","","","","","","","","†","Obesity is defined as body mass index (BMI) =30.0; BMI was calculated from self-reported weight and height (weight [kg]/ height [m²). Respondents reporting weight< 50 pounds or =650 pounds; height< 3 feet or =8 feet; or BMI:<12 or =100 were excluded. Pregnant respondents were also excluded.","","Footnote"
"","","","","","","","","","","","","","","","","","","","","","","","","","","","","","","","","","","","","","","","","Behavioral Risk Factor Surveillance System (BRFSS) - http://www.cdc.gov/brfss/","https://www.cdc.gov/brfss/","Data Source"
"","","","","","","","","","","","","","","","","","","","","","","","","","","","","","","","","","","","","","","","","Centers for Disease Control and Prevention. National Center for Chronic Disease Prevention and Health Promotion, Division of Nutrition, Physical Activity, and Obesity. Data, Trend and Maps [online].","/nccdphp/dnpao/data-trends-maps/index.html","Suggested Citation"
"","","","","","","","","","","","","","","","","","","","","","","","","","","","","","","","","","","","","","","","","Breastfeeding","/breastfeeding/index.htm","Related Links"
"","","","","","","","","","","","","","","","","","","","","","","","","","","","","","","","","","","","","","","","","Division of Nutrition, Physical Activity, and Obesity","/nccdphp/dnpao/index.html","Related Links"
"","","","","","","","","","","","","","","","","","","","","","","","","","","","","","","","","","","","","","","","","Physical Activity","/physicalactivity/index.html","Related Links"
"","","","","","","","","","","","","","","","","","","","","","","","","","","","","","","","","","","","","","","","","Chronic Disease Prevention and Health Promotion","/chronicdisease/index.htm","Related Links"
"","","","","","","","","","","","","","","","","","","","","","","","","","","","","","","","","","","","","","","","","Overweight and Obesity","/obesity/index.html","Related Links"
"","","","","","","","","","","","","","","","","","","","","","","","","","","","","","","","","","","","","","","","","State and Local Programs","/nccdphp/dnpao/state-local-programs/index.html","Related Links"
