"ID","YearStart","YearEnd","Description","LocationAbbr","LocationDesc","DataSource","Class","Topic","Question","Response","Data_Value_Unit","DataValueTypeId","Data_Value_Type","Data_Value","Data_Value_Footnote_Symbol","Data_Value_Footnote","Low_Confidence_Limit","High_Confidence_Limit","Sample_Size","GeoLocation_Lat","GeoLocation_Long","ClassId","TopicId","QuestionId","ResponseId","StratficationCategory1","StratificationCategoryId1","Stratification1","StratificationId1","StratificationCategory2","StratificationCategoryId2","Stratification2","StratificationId2","StratificationCategory3","StratificationCategoryId3","Stratification3","StratificationId3","LocationDisplayOrder","FootnoteSymbol","FootnoteText","URL","FootnoteHeading"
"1988","2013","2013","2013","US","National","BRFSS","Obesity / Weight Status","Obesity / Weight Status","Percent of adults aged 18 years and older who have obesity †","","","VALUE","Value","33.6","","","32.7","34.6","46,889","","","OWS","OWS1","Q036","","Income","INC","Less than $15,000","INCLESS15","","","","","","","","","0","","","",""
"14251","2013","2013","2013","AL","Alabama","BRFSS","Obesity / Weight Status","Obesity / Weight Status","Percent of adults aged 18 years and older who have obesity †","","","VALUE","Value","37.2","","","32.5","42.1","882","32.840571122","-86.631860762","OWS","OWS1","Q036","","Income","INC","Less than $15,000","INCLESS15","","","","","","","","","1","","","",""
"36201","2013","2013","2013","AK","Alaska","BRFSS","Obesity / Weight Status","Obesity / Weight Status","Percent of adults aged 18 years and older who have obesity †","","","VALUE","Value","29.3","","","23.0","36.6","381","64.845079957001","-147.722059036","OWS","OWS1","Q036","","Income","INC","Less than $15,000","INCLESS15","","","","","","","","","2","","","",""
"35899","2013","2013","2013","AZ","Arizona","BRFSS","Obesity / Weight Status","Obesity / Weight Status","Percent of adults aged 18 years and older who have obesity †","","","VALUE","Value","32.4","","","25.1","40.7","484","34.86597028","-111.763811277","OWS","OWS1","Q036","","Income","INC","Less than $15,000","INCLESS15","","","","","","","","","4","","","",""
"32563","2013","2013","2013","AR","Arkansas","BRFSS","Obesity / Weight Status","Obesity / Weight Status","Percent of adults aged 18 years and older who have obesity †","","","VALUE","Value","41.5","","","36.1","47.2","733","34.748650124","-92.274490743","OWS","OWS1","Q036","","Income","INC","Less than $15,000","INCLESS15","","","","","","","","","5","","","",""
"3580","2013","2013","2013","CA","California","BRFSS","Obesity / Weight Status","Obesity / Weight Status","Percent of adults aged 18 years and older who have obesity †","","","VALUE","Value","29.7","","","26.8","32.6","1,834","37.638640123","-120.999999538","OWS","OWS1","Q036","","Income","INC","Less than $15,000","INCLESS15","","","","","","","","","6","","","",""
"19239","2013","2013","2013","CO","Colorado","BRFSS","Obesity / Weight Status","Obesity / Weight Status","Percent of adults aged 18 years and older who have obesity †","","","VALUE","Value","28.2","","","24.3","32.3","931","38.843840757","-106.133610921","OWS","OWS1","Q036","","Income","INC","Less than $15,000","INCLESS15","","","","","","","","","8","","","",""
"16188","2013","2013","2013","CT","Connecticut","BRFSS","Obesity / Weight Status","Obesity / Weight Status","Percent of adults aged 18 years and older who have obesity †","","","VALUE","Value","29.6","","","24.2","35.6","568","41.56266102","-72.649840952","OWS","OWS1","Q036","","Income","INC","Less than $15,000","INCLESS15","","","","","","","","","9","","","",""
"26106","2013","2013","2013","DE","Delaware","BRFSS","Obesity / Weight Status","Obesity / Weight Status","Percent of adults aged 18 years and older who have obesity †","","","VALUE","Value","36.5","","","29.9","43.6","411","39.008830667","-75.577741168","OWS","OWS1","Q036","","Income","INC","Less than $15,000","INCLESS15","","","","","","","","","10","","","",""
"6385","2013","2013","2013","DC","District of Columbia","BRFSS","Obesity / Weight Status","Obesity / Weight Status","Percent of adults aged 18 years and older who have obesity †","","","VALUE","Value","35.5","","","29.1","42.4","446","38.890371385","-77.031961127","OWS","OWS1","Q036","","Income","INC","Less than $15,000","INCLESS15","","","","","","","","","11","","","",""
"38304","2013","2013","2013","FL","Florida","BRFSS","Obesity / Weight Status","Obesity / Weight Status","Percent of adults aged 18 years and older who have obesity †","","","VALUE","Value","33.7","","","30.0","37.6","4,030","28.932040377","-81.928960539","OWS","OWS1","Q036","","Income","INC","Less than $15,000","INCLESS15","","","","","","","","","12","","","",""
"15021","2013","2013","2013","GA","Georgia","BRFSS","Obesity / Weight Status","Obesity / Weight Status","Percent of adults aged 18 years and older who have obesity †","","","VALUE","Value","35.8","","","31.6","40.2","891","32.839681093","-83.627580346","OWS","OWS1","Q036","","Income","INC","Less than $15,000","INCLESS15","","","","","","","","","13","","","",""
"7535","2013","2013","2013","HI","Hawaii","BRFSS","Obesity / Weight Status","Obesity / Weight Status","Percent of adults aged 18 years and older who have obesity †","","","VALUE","Value","20.6","","","17.1","24.6","796","21.304850435","-157.857749403","OWS","OWS1","Q036","","Income","INC","Less than $15,000","INCLESS15","","","","","","","","","15","","","",""
"36061","2013","2013","2013","ID","Idaho","BRFSS","Obesity / Weight Status","Obesity / Weight Status","Percent of adults aged 18 years and older who have obesity †","","","VALUE","Value","33.7","","","28.0","39.8","571","43.682630005","-114.363730042","OWS","OWS1","Q036","","Income","INC","Less than $15,000","INCLESS15","","","","","","","","","16","","","",""
"19340","2013","2013","2013","IL","Illinois","BRFSS","Obesity / Weight Status","Obesity / Weight Status","Percent of adults aged 18 years and older who have obesity †","","","VALUE","Value","32.1","","","25.8","39.2","464","40.485010283","-88.997710178","OWS","OWS1","Q036","","Income","INC","Less than $15,000","INCLESS15","","","","","","","","","17","","","",""
"31034","2013","2013","2013","IN","Indiana","BRFSS","Obesity / Weight Status","Obesity / Weight Status","Percent of adults aged 18 years and older who have obesity †","","","VALUE","Value","37.1","","","33.0","41.4","1,023","39.766910452","-86.149960194","OWS","OWS1","Q036","","Income","INC","Less than $15,000","INCLESS15","","","","","","","","","18","","","",""
"31351","2013","2013","2013","IA","Iowa","BRFSS","Obesity / Weight Status","Obesity / Weight Status","Percent of adults aged 18 years and older who have obesity †","","","VALUE","Value","37.1","","","31.9","42.6","591","42.469400913","-93.816490556","OWS","OWS1","Q036","","Income","INC","Less than $15,000","INCLESS15","","","","","","","","","19","","","",""
"11591","2013","2013","2013","KS","Kansas","BRFSS","Obesity / Weight Status","Obesity / Weight Status","Percent of adults aged 18 years and older who have obesity †","","","VALUE","Value","35.3","","","32.5","38.3","1,778","38.3477403","-98.200781227","OWS","OWS1","Q036","","Income","INC","Less than $15,000","INCLESS15","","","","","","","","","20","","","",""
"34198","2013","2013","2013","KY","Kentucky","BRFSS","Obesity / Weight Status","Obesity / Weight Status","Percent of adults aged 18 years and older who have obesity †","","","VALUE","Value","38.1","","","33.6","42.7","1,342","37.645970271","-84.774971048","OWS","OWS1","Q036","","Income","INC","Less than $15,000","INCLESS15","","","","","","","","","21","","","",""
"38260","2013","2013","2013","LA","Louisiana","BRFSS","Obesity / Weight Status","Obesity / Weight Status","Percent of adults aged 18 years and older who have obesity †","","","VALUE","Value","40.3","","","34.0","46.9","622","31.312660644","-92.445680071","OWS","OWS1","Q036","","Income","INC","Less than $15,000","INCLESS15","","","","","","","","","22","","","",""
"15650","2013","2013","2013","ME","Maine","BRFSS","Obesity / Weight Status","Obesity / Weight Status","Percent of adults aged 18 years and older who have obesity †","","","VALUE","Value","35.6","","","30.9","40.5","839","45.254228894001","-68.985031336","OWS","OWS1","Q036","","Income","INC","Less than $15,000","INCLESS15","","","","","","","","","23","","","",""
"11891","2013","2013","2013","MD","Maryland","BRFSS","Obesity / Weight Status","Obesity / Weight Status","Percent of adults aged 18 years and older who have obesity †","","","VALUE","Value","37.3","","","31.7","43.3","716","39.290580964","-76.609260111","OWS","OWS1","Q036","","Income","INC","Less than $15,000","INCLESS15","","","","","","","","","24","","","",""
"14220","2013","2013","2013","MA","Massachusetts","BRFSS","Obesity / Weight Status","Obesity / Weight Status","Percent of adults aged 18 years and older who have obesity †","","","VALUE","Value","33.2","","","28.9","37.8","1,320","42.27687047","-72.082690675","OWS","OWS1","Q036","","Income","INC","Less than $15,000","INCLESS15","","","","","","","","","25","","","",""
"19142","2013","2013","2013","MI","Michigan","BRFSS","Obesity / Weight Status","Obesity / Weight Status","Percent of adults aged 18 years and older who have obesity †","","","VALUE","Value","36.6","","","32.7","40.7","1,171","44.661319543001","-84.71439027","OWS","OWS1","Q036","","Income","INC","Less than $15,000","INCLESS15","","","","","","","","","26","","","",""
"19712","2013","2013","2013","MN","Minnesota","BRFSS","Obesity / Weight Status","Obesity / Weight Status","Percent of adults aged 18 years and older who have obesity †","","","VALUE","Value","27.3","","","22.6","32.6","916","46.355648736","-94.794200503","OWS","OWS1","Q036","","Income","INC","Less than $15,000","INCLESS15","","","","","","","","","27","","","",""
"4308","2013","2013","2013","MS","Mississippi","BRFSS","Obesity / Weight Status","Obesity / Weight Status","Percent of adults aged 18 years and older who have obesity †","","","VALUE","Value","41.2","","","37.1","45.4","1,293","32.745510099","-89.538030825","OWS","OWS1","Q036","","Income","INC","Less than $15,000","INCLESS15","","","","","","","","","28","","","",""
"4298","2013","2013","2013","MO","Missouri","BRFSS","Obesity / Weight Status","Obesity / Weight Status","Percent of adults aged 18 years and older who have obesity †","","","VALUE","Value","29.9","","","25.3","35.0","836","38.635790776","-92.566300053","OWS","OWS1","Q036","","Income","INC","Less than $15,000","INCLESS15","","","","","","","","","29","","","",""
"2232","2013","2013","2013","MT","Montana","BRFSS","Obesity / Weight Status","Obesity / Weight Status","Percent of adults aged 18 years and older who have obesity †","","","VALUE","Value","26.4","","","22.8","30.3","1,076","47.066528972","-109.424420645","OWS","OWS1","Q036","","Income","INC","Less than $15,000","INCLESS15","","","","","","","","","30","","","",""
"19981","2013","2013","2013","NE","Nebraska","BRFSS","Obesity / Weight Status","Obesity / Weight Status","Percent of adults aged 18 years and older who have obesity †","","","VALUE","Value","29.9","","","26.1","34.0","1,446","41.641040988001","-99.365720623","OWS","OWS1","Q036","","Income","INC","Less than $15,000","INCLESS15","","","","","","","","","31","","","",""
"11048","2013","2013","2013","NV","Nevada","BRFSS","Obesity / Weight Status","Obesity / Weight Status","Percent of adults aged 18 years and older who have obesity †","","","VALUE","Value","26.5","","","18.8","36.0","442","39.49324039","-117.071840564","OWS","OWS1","Q036","","Income","INC","Less than $15,000","INCLESS15","","","","","","","","","32","","","",""
"34294","2013","2013","2013","NH","New Hampshire","BRFSS","Obesity / Weight Status","Obesity / Weight Status","Percent of adults aged 18 years and older who have obesity †","","","VALUE","Value","35.9","","","29.1","43.3","461","43.655950113","-71.50036092","OWS","OWS1","Q036","","Income","INC","Less than $15,000","INCLESS15","","","","","","","","","33","","","",""
"37762","2013","2013","2013","NJ","New Jersey","BRFSS","Obesity / Weight Status","Obesity / Weight Status","Percent of adults aged 18 years and older who have obesity †","","","VALUE","Value","32.6","","","27.6","38.1","904","40.130570048","-74.273691288","OWS","OWS1","Q036","","Income","INC","Less than $15,000","INCLESS15","","","","","","","","","34","","","",""
"8713","2013","2013","2013","NM","New Mexico","BRFSS","Obesity / Weight Status","Obesity / Weight Status","Percent of adults aged 18 years and older who have obesity †","","","VALUE","Value","29.3","","","25.8","33.0","1,252","34.520880952","-106.240580985","OWS","OWS1","Q036","","Income","INC","Less than $15,000","INCLESS15","","","","","","","","","35","","","",""
"20229","2013","2013","2013","NY","New York","BRFSS","Obesity / Weight Status","Obesity / Weight Status","Percent of adults aged 18 years and older who have obesity †","","","VALUE","Value","29.1","","","25.5","33.0","952","42.827001032","-75.543970427","OWS","OWS1","Q036","","Income","INC","Less than $15,000","INCLESS15","","","","","","","","","36","","","",""
"38855","2013","2013","2013","NC","North Carolina","BRFSS","Obesity / Weight Status","Obesity / Weight Status","Percent of adults aged 18 years and older who have obesity †","","","VALUE","Value","36.5","","","32.4","40.8","1,023","35.466220975","-79.159250463","OWS","OWS1","Q036","","Income","INC","Less than $15,000","INCLESS15","","","","","","","","","37","","","",""
"3673","2013","2013","2013","ND","North Dakota","BRFSS","Obesity / Weight Status","Obesity / Weight Status","Percent of adults aged 18 years and older who have obesity †","","","VALUE","Value","30.1","","","24.3","36.6","466","47.475319779","-100.118421049","OWS","OWS1","Q036","","Income","INC","Less than $15,000","INCLESS15","","","","","","","","","38","","","",""
"29797","2013","2013","2013","OH","Ohio","BRFSS","Obesity / Weight Status","Obesity / Weight Status","Percent of adults aged 18 years and older who have obesity †","","","VALUE","Value","35.6","","","31.5","40.0","1,178","40.060210141","-82.404260056","OWS","OWS1","Q036","","Income","INC","Less than $15,000","INCLESS15","","","","","","","","","39","","","",""
"30041","2013","2013","2013","OK","Oklahoma","BRFSS","Obesity / Weight Status","Obesity / Weight Status","Percent of adults aged 18 years and older who have obesity †","","","VALUE","Value","36.4","","","32.4","40.6","1,047","35.472031356","-97.521070214","OWS","OWS1","Q036","","Income","INC","Less than $15,000","INCLESS15","","","","","","","","","40","","","",""
"4343","2013","2013","2013","OR","Oregon","BRFSS","Obesity / Weight Status","Obesity / Weight Status","Percent of adults aged 18 years and older who have obesity †","","","VALUE","Value","28.4","","","23.3","34.1","535","44.567449424","-120.155031326","OWS","OWS1","Q036","","Income","INC","Less than $15,000","INCLESS15","","","","","","","","","41","","","",""
"21332","2013","2013","2013","PA","Pennsylvania","BRFSS","Obesity / Weight Status","Obesity / Weight Status","Percent of adults aged 18 years and older who have obesity †","","","VALUE","Value","34.0","","","30.2","38.0","1,148","40.793730152","-77.860700294","OWS","OWS1","Q036","","Income","INC","Less than $15,000","INCLESS15","","","","","","","","","42","","","",""
"3284","2013","2013","2013","RI","Rhode Island","BRFSS","Obesity / Weight Status","Obesity / Weight Status","Percent of adults aged 18 years and older who have obesity †","","","VALUE","Value","32.0","","","27.0","37.5","599","41.708280193","-71.522470314","OWS","OWS1","Q036","","Income","INC","Less than $15,000","INCLESS15","","","","","","","","","44","","","",""
"33824","2013","2013","2013","SC","South Carolina","BRFSS","Obesity / Weight Status","Obesity / Weight Status","Percent of adults aged 18 years and older who have obesity †","","","VALUE","Value","37.7","","","34.0","41.5","1,287","33.998821303","-81.045371207","OWS","OWS1","Q036","","Income","INC","Less than $15,000","INCLESS15","","","","","","","","","45","","","",""
"18758","2013","2013","2013","SD","South Dakota","BRFSS","Obesity / Weight Status","Obesity / Weight Status","Percent of adults aged 18 years and older who have obesity †","","","VALUE","Value","31.7","","","25.5","38.5","559","44.353130053","-100.373530637","OWS","OWS1","Q036","","Income","INC","Less than $15,000","INCLESS15","","","","","","","","","46","","","",""
"10574","2013","2013","2013","TN","Tennessee","BRFSS","Obesity / Weight Status","Obesity / Weight Status","Percent of adults aged 18 years and older who have obesity †","","","VALUE","Value","38.0","","","32.7","43.7","701","35.68094058","-85.774490914","OWS","OWS1","Q036","","Income","INC","Less than $15,000","INCLESS15","","","","","","","","","47","","","",""
"20477","2013","2013","2013","TX","Texas","BRFSS","Obesity / Weight Status","Obesity / Weight Status","Percent of adults aged 18 years and older who have obesity †","","","VALUE","Value","41.1","","","36.7","45.6","1,213","31.827240407","-99.426770206","OWS","OWS1","Q036","","Income","INC","Less than $15,000","INCLESS15","","","","","","","","","48","","","",""
"15524","2013","2013","2013","UT","Utah","BRFSS","Obesity / Weight Status","Obesity / Weight Status","Percent of adults aged 18 years and older who have obesity †","","","VALUE","Value","26.3","","","22.4","30.6","794","39.360700171","-111.587130635","OWS","OWS1","Q036","","Income","INC","Less than $15,000","INCLESS15","","","","","","","","","49","","","",""
"9893","2013","2013","2013","VT","Vermont","BRFSS","Obesity / Weight Status","Obesity / Weight Status","Percent of adults aged 18 years and older who have obesity †","","","VALUE","Value","28.1","","","23.1","33.7","509","43.625381239","-72.517640791","OWS","OWS1","Q036","","Income","INC","Less than $15,000","INCLESS15","","","","","","","","","50","","","",""
"4305","2013","2013","2013","VA","Virginia","BRFSS","Obesity / Weight Status","Obesity / Weight Status","Percent of adults aged 18 years and older who have obesity †","","","VALUE","Value","33.4","","","29.1","37.9","712","37.542680674","-78.457890463","OWS","OWS1","Q036","","Income","INC","Less than $15,000","INCLESS15","","","","","","","","","51","","","",""
"38003","2013","2013","2013","WA","Washington","BRFSS","Obesity / Weight Status","Obesity / Weight Status","Percent of adults aged 18 years and older who have obesity †","","","VALUE","Value","33.3","","","29.0","37.8","869","47.522278629","-120.47001079","OWS","OWS1","Q036","","Income","INC","Less than $15,000","INCLESS15","","","","","","","","","53","","","",""
"29489","2013","2013","2013","WV","West Virginia","BRFSS","Obesity / Weight Status","Obesity / Weight Status","Percent of adults aged 18 years and older who have obesity †","","","VALUE","Value","34.7","","","30.8","38.9","772","38.665510202","-80.712640135","OWS","OWS1","Q036","","Income","INC","Less than $15,000","INCLESS15","","","","","","","","","54","","","",""
"9506","2013","2013","2013","WI","Wisconsin","BRFSS","Obesity / Weight Status","Obesity / Weight Status","Percent of adults aged 18 years and older who have obesity †","","","VALUE","Value","29.0","","","23.4","35.3","587","44.393191174","-89.816370742","OWS","OWS1","Q036","","Income","INC","Less than $15,000","INCLESS15","","","","","","","","","55","","","",""
"39184","2013","2013","2013","WY","Wyoming","BRFSS","Obesity / Weight Status","Obesity / Weight Status","Percent of adults aged 18 years and older who have obesity †","","","VALUE","Value","29.6","","","24.0","35.9","488","43.235541343","-108.109830353","OWS","OWS1","Q036","","Income","INC","Less than $15,000","INCLESS15","","","","","","","","","56","","","",""
"952","2013","2013","2013","PR","Puerto Rico","BRFSS","Obesity / Weight Status","Obesity / Weight Status","Percent of adults aged 18 years and older who have obesity †","","","VALUE","Value","29.7","","","27.2","32.2","2,273","18.220833","-66.590149","OWS","OWS1","Q036","","Income","INC","Less than $15,000","INCLESS15","","","","","","","","","72","","","",""
"","","","","","","","","","","","","","","","","","","","","","","","","","","","","","","","","","","","","","","","†","Obesity is defined as body mass index (BMI) =30.0; BMI was calculated from self-reported weight and height (weight [kg]/ height [m²). Respondents reporting weight< 50 pounds or =650 pounds; height< 3 feet or =8 feet; or BMI:<12 or =100 were excluded. Pregnant respondents were also excluded.","","Footnote"
"","","","","","","","","","","","","","","","","","","","","","","","","","","","","","","","","","","","","","","","","Behavioral Risk Factor Surveillance System (BRFSS) - http://www.cdc.gov/brfss/","https://www.cdc.gov/brfss/","Data Source"
"","","","","","","","","","","","","","","","","","","","","","","","","","","","","","","","","","","","","","","","","Centers for Disease Control and Prevention. National Center for Chronic Disease Prevention and Health Promotion, Division of Nutrition, Physical Activity, and Obesity. Data, Trend and Maps [online].","/nccdphp/dnpao/data-trends-maps/index.html","Suggested Citation"
"","","","","","","","","","","","","","","","","","","","","","","","","","","","","","","","","","","","","","","","","Breastfeeding","/breastfeeding/index.htm","Related Links"
"","","","","","","","","","","","","","","","","","","","","","","","","","","","","","","","","","","","","","","","","Division of Nutrition, Physical Activity, and Obesity","/nccdphp/dnpao/index.html","Related Links"
"","","","","","","","","","","","","","","","","","","","","","","","","","","","","","","","","","","","","","","","","Physical Activity","/physicalactivity/index.html","Related Links"
"","","","","","","","","","","","","","","","","","","","","","","","","","","","","","","","","","","","","","","","","Chronic Disease Prevention and Health Promotion","/chronicdisease/index.htm","Related Links"
"","","","","","","","","","","","","","","","","","","","","","","","","","","","","","","","","","","","","","","","","Overweight and Obesity","/obesity/index.html","Related Links"
"","","","","","","","","","","","","","","","","","","","","","","","","","","","","","","","","","","","","","","","","State and Local Programs","/nccdphp/dnpao/state-local-programs/index.html","Related Links"
