"ID","YearStart","YearEnd","Description","LocationAbbr","LocationDesc","DataSource","Class","Topic","Question","Response","Data_Value_Unit","DataValueTypeId","Data_Value_Type","Data_Value","Data_Value_Footnote_Symbol","Data_Value_Footnote","Low_Confidence_Limit","High_Confidence_Limit","Sample_Size","GeoLocation_Lat","GeoLocation_Long","ClassId","TopicId","QuestionId","ResponseId","StratficationCategory1","StratificationCategoryId1","Stratification1","StratificationId1","StratificationCategory2","StratificationCategoryId2","Stratification2","StratificationId2","StratificationCategory3","StratificationCategoryId3","Stratification3","StratificationId3","LocationDisplayOrder","FootnoteSymbol","FootnoteText","URL","FootnoteHeading"
"454","2014","2014","2014","US","National","BRFSS","Obesity / Weight Status","Obesity / Weight Status","Percent of adults aged 18 years and older who have obesity †","","","VALUE","Value","38.9","","","37.9","39.8","32,434","","","OWS","OWS1","Q036","","Race/Ethnicity","RACE","Non-Hispanic Black","RACEBLK","","","","","","","","","0","","","",""
"12193","2014","2014","2014","AL","Alabama","BRFSS","Obesity / Weight Status","Obesity / Weight Status","Percent of adults aged 18 years and older who have obesity †","","","VALUE","Value","41.9","","","38.8","45.0","2,029","32.840571122","-86.631860762","OWS","OWS1","Q036","","Race/Ethnicity","RACE","Non-Hispanic Black","RACEBLK","","","","","","","","","1","","","",""
"8151","2014","2014","2014","AK","Alaska","BRFSS","Obesity / Weight Status","Obesity / Weight Status","Percent of adults aged 18 years and older who have obesity †","","","VALUE","Value","42.3","","","28.2","57.7","54","64.845079957001","-147.722059036","OWS","OWS1","Q036","","Race/Ethnicity","RACE","Non-Hispanic Black","RACEBLK","","","","","","","","","2","","","",""
"9976","2014","2014","2014","AZ","Arizona","BRFSS","Obesity / Weight Status","Obesity / Weight Status","Percent of adults aged 18 years and older who have obesity †","","","VALUE","Value","36.7","","","29.8","44.2","381","34.86597028","-111.763811277","OWS","OWS1","Q036","","Race/Ethnicity","RACE","Non-Hispanic Black","RACEBLK","","","","","","","","","4","","","",""
"25527","2014","2014","2014","AR","Arkansas","BRFSS","Obesity / Weight Status","Obesity / Weight Status","Percent of adults aged 18 years and older who have obesity †","","","VALUE","Value","45.1","","","39.3","51.2","723","34.748650124","-92.274490743","OWS","OWS1","Q036","","Race/Ethnicity","RACE","Non-Hispanic Black","RACEBLK","","","","","","","","","5","","","",""
"20105","2014","2014","2014","CA","California","BRFSS","Obesity / Weight Status","Obesity / Weight Status","Percent of adults aged 18 years and older who have obesity †","","","VALUE","Value","32.7","","","27.6","38.2","417","37.638640123","-120.999999538","OWS","OWS1","Q036","","Race/Ethnicity","RACE","Non-Hispanic Black","RACEBLK","","","","","","","","","6","","","",""
"14225","2014","2014","2014","CO","Colorado","BRFSS","Obesity / Weight Status","Obesity / Weight Status","Percent of adults aged 18 years and older who have obesity †","","","VALUE","Value","30.5","","","24.5","37.1","282","38.843840757","-106.133610921","OWS","OWS1","Q036","","Race/Ethnicity","RACE","Non-Hispanic Black","RACEBLK","","","","","","","","","8","","","",""
"28594","2014","2014","2014","CT","Connecticut","BRFSS","Obesity / Weight Status","Obesity / Weight Status","Percent of adults aged 18 years and older who have obesity †","","","VALUE","Value","37.3","","","32.0","43.0","521","41.56266102","-72.649840952","OWS","OWS1","Q036","","Race/Ethnicity","RACE","Non-Hispanic Black","RACEBLK","","","","","","","","","9","","","",""
"9303","2014","2014","2014","DE","Delaware","BRFSS","Obesity / Weight Status","Obesity / Weight Status","Percent of adults aged 18 years and older who have obesity †","","","VALUE","Value","37.7","","","32.3","43.5","565","39.008830667","-75.577741168","OWS","OWS1","Q036","","Race/Ethnicity","RACE","Non-Hispanic Black","RACEBLK","","","","","","","","","10","","","",""
"4812","2014","2014","2014","DC","District of Columbia","BRFSS","Obesity / Weight Status","Obesity / Weight Status","Percent of adults aged 18 years and older who have obesity †","","","VALUE","Value","33.9","","","30.4","37.7","1,734","38.890371385","-77.031961127","OWS","OWS1","Q036","","Race/Ethnicity","RACE","Non-Hispanic Black","RACEBLK","","","","","","","","","11","","","",""
"34974","2014","2014","2014","FL","Florida","BRFSS","Obesity / Weight Status","Obesity / Weight Status","Percent of adults aged 18 years and older who have obesity †","","","VALUE","Value","36.3","","","32.1","40.6","804","28.932040377","-81.928960539","OWS","OWS1","Q036","","Race/Ethnicity","RACE","Non-Hispanic Black","RACEBLK","","","","","","","","","12","","","",""
"19196","2014","2014","2014","GA","Georgia","BRFSS","Obesity / Weight Status","Obesity / Weight Status","Percent of adults aged 18 years and older who have obesity †","","","VALUE","Value","37.8","","","34.5","41.2","1,421","32.839681093","-83.627580346","OWS","OWS1","Q036","","Race/Ethnicity","RACE","Non-Hispanic Black","RACEBLK","","","","","","","","","13","","","",""
"29110","2014","2014","2014","HI","Hawaii","BRFSS","Obesity / Weight Status","Obesity / Weight Status","Percent of adults aged 18 years and older who have obesity †","","","VALUE","Value","34.3","","","20.5","51.4","61","21.304850435","-157.857749403","OWS","OWS1","Q036","","Race/Ethnicity","RACE","Non-Hispanic Black","RACEBLK","","","","","","","","","15","","","",""
"46389","2014","2014","2014","ID","Idaho","BRFSS","Obesity / Weight Status","Obesity / Weight Status","Percent of adults aged 18 years and older who have obesity †","","","VALUE","Value","~","~","Data not available because sample size is insufficient.","~","","~","43.682630005","-114.363730042","OWS","OWS1","Q036","","Race/Ethnicity","RACE","Non-Hispanic Black","RACEBLK","","","","","","","","","16","","","",""
"22016","2014","2014","2014","IL","Illinois","BRFSS","Obesity / Weight Status","Obesity / Weight Status","Percent of adults aged 18 years and older who have obesity †","","","VALUE","Value","43.8","","","38.2","49.5","491","40.485010283","-88.997710178","OWS","OWS1","Q036","","Race/Ethnicity","RACE","Non-Hispanic Black","RACEBLK","","","","","","","","","17","","","",""
"17565","2014","2014","2014","IN","Indiana","BRFSS","Obesity / Weight Status","Obesity / Weight Status","Percent of adults aged 18 years and older who have obesity †","","","VALUE","Value","42.1","","","37.0","47.3","581","39.766910452","-86.149960194","OWS","OWS1","Q036","","Race/Ethnicity","RACE","Non-Hispanic Black","RACEBLK","","","","","","","","","18","","","",""
"36041","2014","2014","2014","IA","Iowa","BRFSS","Obesity / Weight Status","Obesity / Weight Status","Percent of adults aged 18 years and older who have obesity †","","","VALUE","Value","31.4","","","21.4","43.4","110","42.469400913","-93.816490556","OWS","OWS1","Q036","","Race/Ethnicity","RACE","Non-Hispanic Black","RACEBLK","","","","","","","","","19","","","",""
"10977","2014","2014","2014","KS","Kansas","BRFSS","Obesity / Weight Status","Obesity / Weight Status","Percent of adults aged 18 years and older who have obesity †","","","VALUE","Value","42.1","","","36.8","47.5","481","38.3477403","-98.200781227","OWS","OWS1","Q036","","Race/Ethnicity","RACE","Non-Hispanic Black","RACEBLK","","","","","","","","","20","","","",""
"29945","2014","2014","2014","KY","Kentucky","BRFSS","Obesity / Weight Status","Obesity / Weight Status","Percent of adults aged 18 years and older who have obesity †","","","VALUE","Value","42.9","","","35.6","50.4","950","37.645970271","-84.774971048","OWS","OWS1","Q036","","Race/Ethnicity","RACE","Non-Hispanic Black","RACEBLK","","","","","","","","","21","","","",""
"5914","2014","2014","2014","LA","Louisiana","BRFSS","Obesity / Weight Status","Obesity / Weight Status","Percent of adults aged 18 years and older who have obesity †","","","VALUE","Value","43.4","","","40.5","46.3","1,714","31.312660644","-92.445680071","OWS","OWS1","Q036","","Race/Ethnicity","RACE","Non-Hispanic Black","RACEBLK","","","","","","","","","22","","","",""
"49042","2014","2014","2014","ME","Maine","BRFSS","Obesity / Weight Status","Obesity / Weight Status","Percent of adults aged 18 years and older who have obesity †","","","VALUE","Value","~","~","Data not available because sample size is insufficient.","~","","~","45.254228894001","-68.985031336","OWS","OWS1","Q036","","Race/Ethnicity","RACE","Non-Hispanic Black","RACEBLK","","","","","","","","","23","","","",""
"15860","2014","2014","2014","MD","Maryland","BRFSS","Obesity / Weight Status","Obesity / Weight Status","Percent of adults aged 18 years and older who have obesity †","","","VALUE","Value","39.1","","","35.8","42.6","2,327","39.290580964","-76.609260111","OWS","OWS1","Q036","","Race/Ethnicity","RACE","Non-Hispanic Black","RACEBLK","","","","","","","","","24","","","",""
"12816","2014","2014","2014","MA","Massachusetts","BRFSS","Obesity / Weight Status","Obesity / Weight Status","Percent of adults aged 18 years and older who have obesity †","","","VALUE","Value","34.8","","","29.5","40.5","695","42.27687047","-72.082690675","OWS","OWS1","Q036","","Race/Ethnicity","RACE","Non-Hispanic Black","RACEBLK","","","","","","","","","25","","","",""
"15346","2014","2014","2014","MI","Michigan","BRFSS","Obesity / Weight Status","Obesity / Weight Status","Percent of adults aged 18 years and older who have obesity †","","","VALUE","Value","33.6","","","29.6","37.7","787","44.661319543001","-84.71439027","OWS","OWS1","Q036","","Race/Ethnicity","RACE","Non-Hispanic Black","RACEBLK","","","","","","","","","26","","","",""
"16242","2014","2014","2014","MN","Minnesota","BRFSS","Obesity / Weight Status","Obesity / Weight Status","Percent of adults aged 18 years and older who have obesity †","","","VALUE","Value","32.7","","","27.5","38.4","398","46.355648736","-94.794200503","OWS","OWS1","Q036","","Race/Ethnicity","RACE","Non-Hispanic Black","RACEBLK","","","","","","","","","27","","","",""
"36167","2014","2014","2014","MS","Mississippi","BRFSS","Obesity / Weight Status","Obesity / Weight Status","Percent of adults aged 18 years and older who have obesity †","","","VALUE","Value","43.4","","","39.9","47.0","1,407","32.745510099","-89.538030825","OWS","OWS1","Q036","","Race/Ethnicity","RACE","Non-Hispanic Black","RACEBLK","","","","","","","","","28","","","",""
"14564","2014","2014","2014","MO","Missouri","BRFSS","Obesity / Weight Status","Obesity / Weight Status","Percent of adults aged 18 years and older who have obesity †","","","VALUE","Value","39.5","","","33.6","45.6","857","38.635790776","-92.566300053","OWS","OWS1","Q036","","Race/Ethnicity","RACE","Non-Hispanic Black","RACEBLK","","","","","","","","","29","","","",""
"54773","2014","2014","2014","MT","Montana","BRFSS","Obesity / Weight Status","Obesity / Weight Status","Percent of adults aged 18 years and older who have obesity †","","","VALUE","Value","~","~","Data not available because sample size is insufficient.","~","","~","47.066528972","-109.424420645","OWS","OWS1","Q036","","Race/Ethnicity","RACE","Non-Hispanic Black","RACEBLK","","","","","","","","","30","","","",""
"17198","2014","2014","2014","NE","Nebraska","BRFSS","Obesity / Weight Status","Obesity / Weight Status","Percent of adults aged 18 years and older who have obesity †","","","VALUE","Value","37.3","","","30.6","44.6","367","41.641040988001","-99.365720623","OWS","OWS1","Q036","","Race/Ethnicity","RACE","Non-Hispanic Black","RACEBLK","","","","","","","","","31","","","",""
"30833","2014","2014","2014","NV","Nevada","BRFSS","Obesity / Weight Status","Obesity / Weight Status","Percent of adults aged 18 years and older who have obesity †","","","VALUE","Value","38.1","","","29.1","48.1","155","39.49324039","-117.071840564","OWS","OWS1","Q036","","Race/Ethnicity","RACE","Non-Hispanic Black","RACEBLK","","","","","","","","","32","","","",""
"53517","2014","2014","2014","NH","New Hampshire","BRFSS","Obesity / Weight Status","Obesity / Weight Status","Percent of adults aged 18 years and older who have obesity †","","","VALUE","Value","~","~","Data not available because sample size is insufficient.","~","","~","43.655950113","-71.50036092","OWS","OWS1","Q036","","Race/Ethnicity","RACE","Non-Hispanic Black","RACEBLK","","","","","","","","","33","","","",""
"4627","2014","2014","2014","NJ","New Jersey","BRFSS","Obesity / Weight Status","Obesity / Weight Status","Percent of adults aged 18 years and older who have obesity †","","","VALUE","Value","38.4","","","34.7","42.2","1,414","40.130570048","-74.273691288","OWS","OWS1","Q036","","Race/Ethnicity","RACE","Non-Hispanic Black","RACEBLK","","","","","","","","","34","","","",""
"34836","2014","2014","2014","NM","New Mexico","BRFSS","Obesity / Weight Status","Obesity / Weight Status","Percent of adults aged 18 years and older who have obesity †","","","VALUE","Value","37.7","","","25.1","52.3","101","34.520880952","-106.240580985","OWS","OWS1","Q036","","Race/Ethnicity","RACE","Non-Hispanic Black","RACEBLK","","","","","","","","","35","","","",""
"31498","2014","2014","2014","NY","New York","BRFSS","Obesity / Weight Status","Obesity / Weight Status","Percent of adults aged 18 years and older who have obesity †","","","VALUE","Value","31.7","","","27.8","35.9","804","42.827001032","-75.543970427","OWS","OWS1","Q036","","Race/Ethnicity","RACE","Non-Hispanic Black","RACEBLK","","","","","","","","","36","","","",""
"7646","2014","2014","2014","NC","North Carolina","BRFSS","Obesity / Weight Status","Obesity / Weight Status","Percent of adults aged 18 years and older who have obesity †","","","VALUE","Value","39.1","","","36.0","42.4","1,247","35.466220975","-79.159250463","OWS","OWS1","Q036","","Race/Ethnicity","RACE","Non-Hispanic Black","RACEBLK","","","","","","","","","37","","","",""
"46886","2014","2014","2014","ND","North Dakota","BRFSS","Obesity / Weight Status","Obesity / Weight Status","Percent of adults aged 18 years and older who have obesity †","","","VALUE","Value","~","~","Data not available because sample size is insufficient.","~","","~","47.475319779","-100.118421049","OWS","OWS1","Q036","","Race/Ethnicity","RACE","Non-Hispanic Black","RACEBLK","","","","","","","","","38","","","",""
"18271","2014","2014","2014","OH","Ohio","BRFSS","Obesity / Weight Status","Obesity / Weight Status","Percent of adults aged 18 years and older who have obesity †","","","VALUE","Value","41.9","","","36.6","47.4","640","40.060210141","-82.404260056","OWS","OWS1","Q036","","Race/Ethnicity","RACE","Non-Hispanic Black","RACEBLK","","","","","","","","","39","","","",""
"32087","2014","2014","2014","OK","Oklahoma","BRFSS","Obesity / Weight Status","Obesity / Weight Status","Percent of adults aged 18 years and older who have obesity †","","","VALUE","Value","33.4","","","28.4","38.8","448","35.472031356","-97.521070214","OWS","OWS1","Q036","","Race/Ethnicity","RACE","Non-Hispanic Black","RACEBLK","","","","","","","","","40","","","",""
"46892","2014","2014","2014","OR","Oregon","BRFSS","Obesity / Weight Status","Obesity / Weight Status","Percent of adults aged 18 years and older who have obesity †","","","VALUE","Value","~","~","Data not available because sample size is insufficient.","~","","~","44.567449424","-120.155031326","OWS","OWS1","Q036","","Race/Ethnicity","RACE","Non-Hispanic Black","RACEBLK","","","","","","","","","41","","","",""
"36866","2014","2014","2014","PA","Pennsylvania","BRFSS","Obesity / Weight Status","Obesity / Weight Status","Percent of adults aged 18 years and older who have obesity †","","","VALUE","Value","37.1","","","32.7","41.7","806","40.793730152","-77.860700294","OWS","OWS1","Q036","","Race/Ethnicity","RACE","Non-Hispanic Black","RACEBLK","","","","","","","","","42","","","",""
"36470","2014","2014","2014","RI","Rhode Island","BRFSS","Obesity / Weight Status","Obesity / Weight Status","Percent of adults aged 18 years and older who have obesity †","","","VALUE","Value","34.7","","","26.9","43.3","214","41.708280193","-71.522470314","OWS","OWS1","Q036","","Race/Ethnicity","RACE","Non-Hispanic Black","RACEBLK","","","","","","","","","44","","","",""
"12042","2014","2014","2014","SC","South Carolina","BRFSS","Obesity / Weight Status","Obesity / Weight Status","Percent of adults aged 18 years and older who have obesity †","","","VALUE","Value","42.7","","","40.1","45.4","2,575","33.998821303","-81.045371207","OWS","OWS1","Q036","","Race/Ethnicity","RACE","Non-Hispanic Black","RACEBLK","","","","","","","","","45","","","",""
"45426","2014","2014","2014","SD","South Dakota","BRFSS","Obesity / Weight Status","Obesity / Weight Status","Percent of adults aged 18 years and older who have obesity †","","","VALUE","Value","~","~","Data not available because sample size is insufficient.","~","","~","44.353130053","-100.373530637","OWS","OWS1","Q036","","Race/Ethnicity","RACE","Non-Hispanic Black","RACEBLK","","","","","","","","","46","","","",""
"8860","2014","2014","2014","TN","Tennessee","BRFSS","Obesity / Weight Status","Obesity / Weight Status","Percent of adults aged 18 years and older who have obesity †","","","VALUE","Value","40.7","","","35.1","46.7","584","35.68094058","-85.774490914","OWS","OWS1","Q036","","Race/Ethnicity","RACE","Non-Hispanic Black","RACEBLK","","","","","","","","","47","","","",""
"29002","2014","2014","2014","TX","Texas","BRFSS","Obesity / Weight Status","Obesity / Weight Status","Percent of adults aged 18 years and older who have obesity †","","","VALUE","Value","46.5","","","41.4","51.6","1,026","31.827240407","-99.426770206","OWS","OWS1","Q036","","Race/Ethnicity","RACE","Non-Hispanic Black","RACEBLK","","","","","","","","","48","","","",""
"6401","2014","2014","2014","UT","Utah","BRFSS","Obesity / Weight Status","Obesity / Weight Status","Percent of adults aged 18 years and older who have obesity †","","","VALUE","Value","29.4","","","18.7","43.1","61","39.360700171","-111.587130635","OWS","OWS1","Q036","","Race/Ethnicity","RACE","Non-Hispanic Black","RACEBLK","","","","","","","","","49","","","",""
"53875","2014","2014","2014","VT","Vermont","BRFSS","Obesity / Weight Status","Obesity / Weight Status","Percent of adults aged 18 years and older who have obesity †","","","VALUE","Value","~","~","Data not available because sample size is insufficient.","~","","~","43.625381239","-72.517640791","OWS","OWS1","Q036","","Race/Ethnicity","RACE","Non-Hispanic Black","RACEBLK","","","","","","","","","50","","","",""
"10491","2014","2014","2014","VA","Virginia","BRFSS","Obesity / Weight Status","Obesity / Weight Status","Percent of adults aged 18 years and older who have obesity †","","","VALUE","Value","38.9","","","35.5","42.4","1,395","37.542680674","-78.457890463","OWS","OWS1","Q036","","Race/Ethnicity","RACE","Non-Hispanic Black","RACEBLK","","","","","","","","","51","","","",""
"19399","2014","2014","2014","WA","Washington","BRFSS","Obesity / Weight Status","Obesity / Weight Status","Percent of adults aged 18 years and older who have obesity †","","","VALUE","Value","33.5","","","25.4","42.7","163","47.522278629","-120.47001079","OWS","OWS1","Q036","","Race/Ethnicity","RACE","Non-Hispanic Black","RACEBLK","","","","","","","","","53","","","",""
"16940","2014","2014","2014","WV","West Virginia","BRFSS","Obesity / Weight Status","Obesity / Weight Status","Percent of adults aged 18 years and older who have obesity †","","","VALUE","Value","46.0","","","36.0","56.4","128","38.665510202","-80.712640135","OWS","OWS1","Q036","","Race/Ethnicity","RACE","Non-Hispanic Black","RACEBLK","","","","","","","","","54","","","",""
"8212","2014","2014","2014","WI","Wisconsin","BRFSS","Obesity / Weight Status","Obesity / Weight Status","Percent of adults aged 18 years and older who have obesity †","","","VALUE","Value","44.5","","","33.8","55.7","262","44.393191174","-89.816370742","OWS","OWS1","Q036","","Race/Ethnicity","RACE","Non-Hispanic Black","RACEBLK","","","","","","","","","55","","","",""
"51713","2014","2014","2014","WY","Wyoming","BRFSS","Obesity / Weight Status","Obesity / Weight Status","Percent of adults aged 18 years and older who have obesity †","","","VALUE","Value","~","~","Data not available because sample size is insufficient.","~","","~","43.235541343","-108.109830353","OWS","OWS1","Q036","","Race/Ethnicity","RACE","Non-Hispanic Black","RACEBLK","","","","","","","","","56","","","",""
"50776","2014","2014","2014","GU","Guam","BRFSS","Obesity / Weight Status","Obesity / Weight Status","Percent of adults aged 18 years and older who have obesity †","","","VALUE","Value","~","~","Data not available because sample size is insufficient.","~","","~","13.444304","144.793731","OWS","OWS1","Q036","","Race/Ethnicity","RACE","Non-Hispanic Black","RACEBLK","","","","","","","","","66","","","",""
"44667","2014","2014","2014","PR","Puerto Rico","BRFSS","Obesity / Weight Status","Obesity / Weight Status","Percent of adults aged 18 years and older who have obesity †","","","VALUE","Value","~","~","Data not available because sample size is insufficient.","~","","~","18.220833","-66.590149","OWS","OWS1","Q036","","Race/Ethnicity","RACE","Non-Hispanic Black","RACEBLK","","","","","","","","","72","","","",""
"","","","","","","","","","","","","","","","","","","","","","","","","","","","","","","","","","","","","","","","~","Data not available because sample size is insufficient.","","Footnote"
"","","","","","","","","","","","","","","","","","","","","","","","","","","","","","","","","","","","","","","","†","Obesity is defined as body mass index (BMI) =30.0; BMI was calculated from self-reported weight and height (weight [kg]/ height [m²). Respondents reporting weight< 50 pounds or =650 pounds; height< 3 feet or =8 feet; or BMI:<12 or =100 were excluded. Pregnant respondents were also excluded.","","Footnote"
"","","","","","","","","","","","","","","","","","","","","","","","","","","","","","","","","","","","","","","","","Behavioral Risk Factor Surveillance System (BRFSS) - http://www.cdc.gov/brfss/","https://www.cdc.gov/brfss/","Data Source"
"","","","","","","","","","","","","","","","","","","","","","","","","","","","","","","","","","","","","","","","","Centers for Disease Control and Prevention. National Center for Chronic Disease Prevention and Health Promotion, Division of Nutrition, Physical Activity, and Obesity. Data, Trend and Maps [online].","/nccdphp/dnpao/data-trends-maps/index.html","Suggested Citation"
"","","","","","","","","","","","","","","","","","","","","","","","","","","","","","","","","","","","","","","","","Breastfeeding","/breastfeeding/index.htm","Related Links"
"","","","","","","","","","","","","","","","","","","","","","","","","","","","","","","","","","","","","","","","","Division of Nutrition, Physical Activity, and Obesity","/nccdphp/dnpao/index.html","Related Links"
"","","","","","","","","","","","","","","","","","","","","","","","","","","","","","","","","","","","","","","","","Physical Activity","/physicalactivity/index.html","Related Links"
"","","","","","","","","","","","","","","","","","","","","","","","","","","","","","","","","","","","","","","","","Chronic Disease Prevention and Health Promotion","/chronicdisease/index.htm","Related Links"
"","","","","","","","","","","","","","","","","","","","","","","","","","","","","","","","","","","","","","","","","Overweight and Obesity","/obesity/index.html","Related Links"
"","","","","","","","","","","","","","","","","","","","","","","","","","","","","","","","","","","","","","","","","State and Local Programs","/nccdphp/dnpao/state-local-programs/index.html","Related Links"
