"ID","YearStart","YearEnd","Description","LocationAbbr","LocationDesc","DataSource","Class","Topic","Question","Response","Data_Value_Unit","DataValueTypeId","Data_Value_Type","Data_Value","Data_Value_Footnote_Symbol","Data_Value_Footnote","Low_Confidence_Limit","High_Confidence_Limit","Sample_Size","GeoLocation_Lat","GeoLocation_Long","ClassId","TopicId","QuestionId","ResponseId","StratficationCategory1","StratificationCategoryId1","Stratification1","StratificationId1","StratificationCategory2","StratificationCategoryId2","Stratification2","StratificationId2","StratificationCategory3","StratificationCategoryId3","Stratification3","StratificationId3","LocationDisplayOrder","FootnoteSymbol","FootnoteText","URL","FootnoteHeading"
"563","2015","2015","2015","US","National","BRFSS","Obesity / Weight Status","Obesity / Weight Status","Percent of adults aged 18 years and older who have obesity †","","","VALUE","Value","10.2","","","9.0","11.4","8,324","","","OWS","OWS1","Q036","","Race/Ethnicity","RACE","Asian","RACEASN","","","","","","","","","0","","","",""
"23456","2015","2015","2015","AL","Alabama","BRFSS","Obesity / Weight Status","Obesity / Weight Status","Percent of adults aged 18 years and older who have obesity †","","","VALUE","Value","~","~","Data not available because sample size is insufficient.","~","","~","32.840571122","-86.631860762","OWS","OWS1","Q036","","Race/Ethnicity","RACE","Asian","RACEASN","","","","","","","","","1","","","",""
"29802","2015","2015","2015","AK","Alaska","BRFSS","Obesity / Weight Status","Obesity / Weight Status","Percent of adults aged 18 years and older who have obesity †","","","VALUE","Value","18.5","","","8.2","36.8","59","64.845079957001","-147.722059036","OWS","OWS1","Q036","","Race/Ethnicity","RACE","Asian","RACEASN","","","","","","","","","2","","","",""
"19848","2015","2015","2015","AZ","Arizona","BRFSS","Obesity / Weight Status","Obesity / Weight Status","Percent of adults aged 18 years and older who have obesity †","","","VALUE","Value","8.5","","","4.0","17.3","125","34.86597028","-111.763811277","OWS","OWS1","Q036","","Race/Ethnicity","RACE","Asian","RACEASN","","","","","","","","","4","","","",""
"12503","2015","2015","2015","AR","Arkansas","BRFSS","Obesity / Weight Status","Obesity / Weight Status","Percent of adults aged 18 years and older who have obesity †","","","VALUE","Value","~","~","Data not available because sample size is insufficient.","~","","~","34.748650124","-92.274490743","OWS","OWS1","Q036","","Race/Ethnicity","RACE","Asian","RACEASN","","","","","","","","","5","","","",""
"19009","2015","2015","2015","CA","California","BRFSS","Obesity / Weight Status","Obesity / Weight Status","Percent of adults aged 18 years and older who have obesity †","","","VALUE","Value","10.1","","","7.9","12.9","993","37.638640123","-120.999999538","OWS","OWS1","Q036","","Race/Ethnicity","RACE","Asian","RACEASN","","","","","","","","","6","","","",""
"20123","2015","2015","2015","CO","Colorado","BRFSS","Obesity / Weight Status","Obesity / Weight Status","Percent of adults aged 18 years and older who have obesity †","","","VALUE","Value","8.3","","","4.5","14.8","215","38.843840757","-106.133610921","OWS","OWS1","Q036","","Race/Ethnicity","RACE","Asian","RACEASN","","","","","","","","","8","","","",""
"12742","2015","2015","2015","CT","Connecticut","BRFSS","Obesity / Weight Status","Obesity / Weight Status","Percent of adults aged 18 years and older who have obesity †","","","VALUE","Value","10.1","","","6.5","15.3","272","41.56266102","-72.649840952","OWS","OWS1","Q036","","Race/Ethnicity","RACE","Asian","RACEASN","","","","","","","","","9","","","",""
"7715","2015","2015","2015","DE","Delaware","BRFSS","Obesity / Weight Status","Obesity / Weight Status","Percent of adults aged 18 years and older who have obesity †","","","VALUE","Value","~","~","Data not available because sample size is insufficient.","~","","~","39.008830667","-75.577741168","OWS","OWS1","Q036","","Race/Ethnicity","RACE","Asian","RACEASN","","","","","","","","","10","","","",""
"33348","2015","2015","2015","DC","District of Columbia","BRFSS","Obesity / Weight Status","Obesity / Weight Status","Percent of adults aged 18 years and older who have obesity †","","","VALUE","Value","6.2","","","1.7","20.2","53","38.890371385","-77.031961127","OWS","OWS1","Q036","","Race/Ethnicity","RACE","Asian","RACEASN","","","","","","","","","11","","","",""
"35592","2015","2015","2015","FL","Florida","BRFSS","Obesity / Weight Status","Obesity / Weight Status","Percent of adults aged 18 years and older who have obesity †","","","VALUE","Value","7.3","","","2.7","18.4","125","28.932040377","-81.928960539","OWS","OWS1","Q036","","Race/Ethnicity","RACE","Asian","RACEASN","","","","","","","","","12","","","",""
"3522","2015","2015","2015","GA","Georgia","BRFSS","Obesity / Weight Status","Obesity / Weight Status","Percent of adults aged 18 years and older who have obesity †","","","VALUE","Value","5.6","","","1.4","19.4","63","32.839681093","-83.627580346","OWS","OWS1","Q036","","Race/Ethnicity","RACE","Asian","RACEASN","","","","","","","","","13","","","",""
"7388","2015","2015","2015","HI","Hawaii","BRFSS","Obesity / Weight Status","Obesity / Weight Status","Percent of adults aged 18 years and older who have obesity †","","","VALUE","Value","16.0","","","14.0","18.2","2,066","21.304850435","-157.857749403","OWS","OWS1","Q036","","Race/Ethnicity","RACE","Asian","RACEASN","","","","","","","","","15","","","",""
"13090","2015","2015","2015","ID","Idaho","BRFSS","Obesity / Weight Status","Obesity / Weight Status","Percent of adults aged 18 years and older who have obesity †","","","VALUE","Value","~","~","Data not available because sample size is insufficient.","~","","~","43.682630005","-114.363730042","OWS","OWS1","Q036","","Race/Ethnicity","RACE","Asian","RACEASN","","","","","","","","","16","","","",""
"19455","2015","2015","2015","IL","Illinois","BRFSS","Obesity / Weight Status","Obesity / Weight Status","Percent of adults aged 18 years and older who have obesity †","","","VALUE","Value","9.6","","","5.1","17.4","157","40.485010283","-88.997710178","OWS","OWS1","Q036","","Race/Ethnicity","RACE","Asian","RACEASN","","","","","","","","","17","","","",""
"8363","2015","2015","2015","IN","Indiana","BRFSS","Obesity / Weight Status","Obesity / Weight Status","Percent of adults aged 18 years and older who have obesity †","","","VALUE","Value","5.4","","","1.3","19.3","57","39.766910452","-86.149960194","OWS","OWS1","Q036","","Race/Ethnicity","RACE","Asian","RACEASN","","","","","","","","","18","","","",""
"8231","2015","2015","2015","IA","Iowa","BRFSS","Obesity / Weight Status","Obesity / Weight Status","Percent of adults aged 18 years and older who have obesity †","","","VALUE","Value","~","~","Data not available because sample size is insufficient.","~","","~","42.469400913","-93.816490556","OWS","OWS1","Q036","","Race/Ethnicity","RACE","Asian","RACEASN","","","","","","","","","19","","","",""
"27837","2015","2015","2015","KS","Kansas","BRFSS","Obesity / Weight Status","Obesity / Weight Status","Percent of adults aged 18 years and older who have obesity †","","","VALUE","Value","10.9","","","7.2","16.3","218","38.3477403","-98.200781227","OWS","OWS1","Q036","","Race/Ethnicity","RACE","Asian","RACEASN","","","","","","","","","20","","","",""
"4769","2015","2015","2015","KY","Kentucky","BRFSS","Obesity / Weight Status","Obesity / Weight Status","Percent of adults aged 18 years and older who have obesity †","","","VALUE","Value","~","~","Data not available because sample size is insufficient.","~","","~","37.645970271","-84.774971048","OWS","OWS1","Q036","","Race/Ethnicity","RACE","Asian","RACEASN","","","","","","","","","21","","","",""
"5206","2015","2015","2015","LA","Louisiana","BRFSS","Obesity / Weight Status","Obesity / Weight Status","Percent of adults aged 18 years and older who have obesity †","","","VALUE","Value","~","~","Data not available because sample size is insufficient.","~","","~","31.312660644","-92.445680071","OWS","OWS1","Q036","","Race/Ethnicity","RACE","Asian","RACEASN","","","","","","","","","22","","","",""
"32167","2015","2015","2015","ME","Maine","BRFSS","Obesity / Weight Status","Obesity / Weight Status","Percent of adults aged 18 years and older who have obesity †","","","VALUE","Value","~","~","Data not available because sample size is insufficient.","~","","~","45.254228894001","-68.985031336","OWS","OWS1","Q036","","Race/Ethnicity","RACE","Asian","RACEASN","","","","","","","","","23","","","",""
"30767","2015","2015","2015","MD","Maryland","BRFSS","Obesity / Weight Status","Obesity / Weight Status","Percent of adults aged 18 years and older who have obesity †","","","VALUE","Value","12.2","","","6.7","21.0","255","39.290580964","-76.609260111","OWS","OWS1","Q036","","Race/Ethnicity","RACE","Asian","RACEASN","","","","","","","","","24","","","",""
"18491","2015","2015","2015","MA","Massachusetts","BRFSS","Obesity / Weight Status","Obesity / Weight Status","Percent of adults aged 18 years and older who have obesity †","","","VALUE","Value","7.7","","","4.6","12.7","226","42.27687047","-72.082690675","OWS","OWS1","Q036","","Race/Ethnicity","RACE","Asian","RACEASN","","","","","","","","","25","","","",""
"27122","2015","2015","2015","MI","Michigan","BRFSS","Obesity / Weight Status","Obesity / Weight Status","Percent of adults aged 18 years and older who have obesity †","","","VALUE","Value","9.0","","","4.5","17.0","126","44.661319543001","-84.71439027","OWS","OWS1","Q036","","Race/Ethnicity","RACE","Asian","RACEASN","","","","","","","","","26","","","",""
"6940","2015","2015","2015","MN","Minnesota","BRFSS","Obesity / Weight Status","Obesity / Weight Status","Percent of adults aged 18 years and older who have obesity †","","","VALUE","Value","10.6","","","6.7","16.3","226","46.355648736","-94.794200503","OWS","OWS1","Q036","","Race/Ethnicity","RACE","Asian","RACEASN","","","","","","","","","27","","","",""
"12946","2015","2015","2015","MS","Mississippi","BRFSS","Obesity / Weight Status","Obesity / Weight Status","Percent of adults aged 18 years and older who have obesity †","","","VALUE","Value","~","~","Data not available because sample size is insufficient.","~","","~","32.745510099","-89.538030825","OWS","OWS1","Q036","","Race/Ethnicity","RACE","Asian","RACEASN","","","","","","","","","28","","","",""
"27376","2015","2015","2015","MO","Missouri","BRFSS","Obesity / Weight Status","Obesity / Weight Status","Percent of adults aged 18 years and older who have obesity †","","","VALUE","Value","~","~","Data not available because sample size is insufficient.","~","","~","38.635790776","-92.566300053","OWS","OWS1","Q036","","Race/Ethnicity","RACE","Asian","RACEASN","","","","","","","","","29","","","",""
"18966","2015","2015","2015","MT","Montana","BRFSS","Obesity / Weight Status","Obesity / Weight Status","Percent of adults aged 18 years and older who have obesity †","","","VALUE","Value","~","~","Data not available because sample size is insufficient.","~","","~","47.066528972","-109.424420645","OWS","OWS1","Q036","","Race/Ethnicity","RACE","Asian","RACEASN","","","","","","","","","30","","","",""
"7801","2015","2015","2015","NE","Nebraska","BRFSS","Obesity / Weight Status","Obesity / Weight Status","Percent of adults aged 18 years and older who have obesity †","","","VALUE","Value","13.4","","","6.1","27.1","76","41.641040988001","-99.365720623","OWS","OWS1","Q036","","Race/Ethnicity","RACE","Asian","RACEASN","","","","","","","","","31","","","",""
"29717","2015","2015","2015","NV","Nevada","BRFSS","Obesity / Weight Status","Obesity / Weight Status","Percent of adults aged 18 years and older who have obesity †","","","VALUE","Value","11.0","","","4.2","25.7","78","39.49324039","-117.071840564","OWS","OWS1","Q036","","Race/Ethnicity","RACE","Asian","RACEASN","","","","","","","","","32","","","",""
"34882","2015","2015","2015","NH","New Hampshire","BRFSS","Obesity / Weight Status","Obesity / Weight Status","Percent of adults aged 18 years and older who have obesity †","","","VALUE","Value","14.2","","","5.8","30.6","58","43.655950113","-71.50036092","OWS","OWS1","Q036","","Race/Ethnicity","RACE","Asian","RACEASN","","","","","","","","","33","","","",""
"20158","2015","2015","2015","NJ","New Jersey","BRFSS","Obesity / Weight Status","Obesity / Weight Status","Percent of adults aged 18 years and older who have obesity †","","","VALUE","Value","9.5","","","6.2","14.4","360","40.130570048","-74.273691288","OWS","OWS1","Q036","","Race/Ethnicity","RACE","Asian","RACEASN","","","","","","","","","34","","","",""
"12840","2015","2015","2015","NM","New Mexico","BRFSS","Obesity / Weight Status","Obesity / Weight Status","Percent of adults aged 18 years and older who have obesity †","","","VALUE","Value","~","~","Data not available because sample size is insufficient.","~","","~","34.520880952","-106.240580985","OWS","OWS1","Q036","","Race/Ethnicity","RACE","Asian","RACEASN","","","","","","","","","35","","","",""
"33321","2015","2015","2015","NY","New York","BRFSS","Obesity / Weight Status","Obesity / Weight Status","Percent of adults aged 18 years and older who have obesity †","","","VALUE","Value","9.1","","","6.3","13.0","444","42.827001032","-75.543970427","OWS","OWS1","Q036","","Race/Ethnicity","RACE","Asian","RACEASN","","","","","","","","","36","","","",""
"29931","2015","2015","2015","NC","North Carolina","BRFSS","Obesity / Weight Status","Obesity / Weight Status","Percent of adults aged 18 years and older who have obesity †","","","VALUE","Value","15.0","","","5.1","36.8","73","35.466220975","-79.159250463","OWS","OWS1","Q036","","Race/Ethnicity","RACE","Asian","RACEASN","","","","","","","","","37","","","",""
"21825","2015","2015","2015","ND","North Dakota","BRFSS","Obesity / Weight Status","Obesity / Weight Status","Percent of adults aged 18 years and older who have obesity †","","","VALUE","Value","~","~","Data not available because sample size is insufficient.","~","","~","47.475319779","-100.118421049","OWS","OWS1","Q036","","Race/Ethnicity","RACE","Asian","RACEASN","","","","","","","","","38","","","",""
"33816","2015","2015","2015","OH","Ohio","BRFSS","Obesity / Weight Status","Obesity / Weight Status","Percent of adults aged 18 years and older who have obesity †","","","VALUE","Value","8.8","","","3.9","18.7","82","40.060210141","-82.404260056","OWS","OWS1","Q036","","Race/Ethnicity","RACE","Asian","RACEASN","","","","","","","","","39","","","",""
"31139","2015","2015","2015","OK","Oklahoma","BRFSS","Obesity / Weight Status","Obesity / Weight Status","Percent of adults aged 18 years and older who have obesity †","","","VALUE","Value","~","~","Data not available because sample size is insufficient.","~","","~","35.472031356","-97.521070214","OWS","OWS1","Q036","","Race/Ethnicity","RACE","Asian","RACEASN","","","","","","","","","40","","","",""
"16863","2015","2015","2015","OR","Oregon","BRFSS","Obesity / Weight Status","Obesity / Weight Status","Percent of adults aged 18 years and older who have obesity †","","","VALUE","Value","11.9","","","5.5","23.6","66","44.567449424","-120.155031326","OWS","OWS1","Q036","","Race/Ethnicity","RACE","Asian","RACEASN","","","","","","","","","41","","","",""
"25632","2015","2015","2015","PA","Pennsylvania","BRFSS","Obesity / Weight Status","Obesity / Weight Status","Percent of adults aged 18 years and older who have obesity †","","","VALUE","Value","13.0","","","6.7","23.7","86","40.793730152","-77.860700294","OWS","OWS1","Q036","","Race/Ethnicity","RACE","Asian","RACEASN","","","","","","","","","42","","","",""
"38126","2015","2015","2015","RI","Rhode Island","BRFSS","Obesity / Weight Status","Obesity / Weight Status","Percent of adults aged 18 years and older who have obesity †","","","VALUE","Value","4.7","","","1.5","13.7","59","41.708280193","-71.522470314","OWS","OWS1","Q036","","Race/Ethnicity","RACE","Asian","RACEASN","","","","","","","","","44","","","",""
"29291","2015","2015","2015","SC","South Carolina","BRFSS","Obesity / Weight Status","Obesity / Weight Status","Percent of adults aged 18 years and older who have obesity †","","","VALUE","Value","16.0","","","6.9","32.9","69","33.998821303","-81.045371207","OWS","OWS1","Q036","","Race/Ethnicity","RACE","Asian","RACEASN","","","","","","","","","45","","","",""
"7437","2015","2015","2015","SD","South Dakota","BRFSS","Obesity / Weight Status","Obesity / Weight Status","Percent of adults aged 18 years and older who have obesity †","","","VALUE","Value","~","~","Data not available because sample size is insufficient.","~","","~","44.353130053","-100.373530637","OWS","OWS1","Q036","","Race/Ethnicity","RACE","Asian","RACEASN","","","","","","","","","46","","","",""
"29791","2015","2015","2015","TN","Tennessee","BRFSS","Obesity / Weight Status","Obesity / Weight Status","Percent of adults aged 18 years and older who have obesity †","","","VALUE","Value","~","~","Data not available because sample size is insufficient.","~","","~","35.68094058","-85.774490914","OWS","OWS1","Q036","","Race/Ethnicity","RACE","Asian","RACEASN","","","","","","","","","47","","","",""
"15794","2015","2015","2015","TX","Texas","BRFSS","Obesity / Weight Status","Obesity / Weight Status","Percent of adults aged 18 years and older who have obesity †","","","VALUE","Value","9.7","","","5.7","16.2","264","31.827240407","-99.426770206","OWS","OWS1","Q036","","Race/Ethnicity","RACE","Asian","RACEASN","","","","","","","","","48","","","",""
"22100","2015","2015","2015","UT","Utah","BRFSS","Obesity / Weight Status","Obesity / Weight Status","Percent of adults aged 18 years and older who have obesity †","","","VALUE","Value","6.5","","","2.8","14.2","120","39.360700171","-111.587130635","OWS","OWS1","Q036","","Race/Ethnicity","RACE","Asian","RACEASN","","","","","","","","","49","","","",""
"20361","2015","2015","2015","VT","Vermont","BRFSS","Obesity / Weight Status","Obesity / Weight Status","Percent of adults aged 18 years and older who have obesity †","","","VALUE","Value","~","~","Data not available because sample size is insufficient.","~","","~","43.625381239","-72.517640791","OWS","OWS1","Q036","","Race/Ethnicity","RACE","Asian","RACEASN","","","","","","","","","50","","","",""
"27138","2015","2015","2015","VA","Virginia","BRFSS","Obesity / Weight Status","Obesity / Weight Status","Percent of adults aged 18 years and older who have obesity †","","","VALUE","Value","12.3","","","7.1","20.5","168","37.542680674","-78.457890463","OWS","OWS1","Q036","","Race/Ethnicity","RACE","Asian","RACEASN","","","","","","","","","51","","","",""
"32992","2015","2015","2015","WA","Washington","BRFSS","Obesity / Weight Status","Obesity / Weight Status","Percent of adults aged 18 years and older who have obesity †","","","VALUE","Value","10.3","","","7.2","14.6","466","47.522278629","-120.47001079","OWS","OWS1","Q036","","Race/Ethnicity","RACE","Asian","RACEASN","","","","","","","","","53","","","",""
"9345","2015","2015","2015","WV","West Virginia","BRFSS","Obesity / Weight Status","Obesity / Weight Status","Percent of adults aged 18 years and older who have obesity †","","","VALUE","Value","~","~","Data not available because sample size is insufficient.","~","","~","38.665510202","-80.712640135","OWS","OWS1","Q036","","Race/Ethnicity","RACE","Asian","RACEASN","","","","","","","","","54","","","",""
"4858","2015","2015","2015","WI","Wisconsin","BRFSS","Obesity / Weight Status","Obesity / Weight Status","Percent of adults aged 18 years and older who have obesity †","","","VALUE","Value","~","~","Data not available because sample size is insufficient.","~","","~","44.393191174","-89.816370742","OWS","OWS1","Q036","","Race/Ethnicity","RACE","Asian","RACEASN","","","","","","","","","55","","","",""
"33160","2015","2015","2015","WY","Wyoming","BRFSS","Obesity / Weight Status","Obesity / Weight Status","Percent of adults aged 18 years and older who have obesity †","","","VALUE","Value","~","~","Data not available because sample size is insufficient.","~","","~","43.235541343","-108.109830353","OWS","OWS1","Q036","","Race/Ethnicity","RACE","Asian","RACEASN","","","","","","","","","56","","","",""
"638","2015","2015","2015","GU","Guam","BRFSS","Obesity / Weight Status","Obesity / Weight Status","Percent of adults aged 18 years and older who have obesity †","","","VALUE","Value","9.9","","","7.3","13.2","475","13.444304","144.793731","OWS","OWS1","Q036","","Race/Ethnicity","RACE","Asian","RACEASN","","","","","","","","","66","","","",""
"1440","2015","2015","2015","PR","Puerto Rico","BRFSS","Obesity / Weight Status","Obesity / Weight Status","Percent of adults aged 18 years and older who have obesity †","","","VALUE","Value","~","~","Data not available because sample size is insufficient.","~","","~","18.220833","-66.590149","OWS","OWS1","Q036","","Race/Ethnicity","RACE","Asian","RACEASN","","","","","","","","","72","","","",""
"","","","","","","","","","","","","","","","","","","","","","","","","","","","","","","","","","","","","","","","~","Data not available because sample size is insufficient.","","Footnote"
"","","","","","","","","","","","","","","","","","","","","","","","","","","","","","","","","","","","","","","","†","Obesity is defined as body mass index (BMI) =30.0; BMI was calculated from self-reported weight and height (weight [kg]/ height [m²). Respondents reporting weight< 50 pounds or =650 pounds; height< 3 feet or =8 feet; or BMI:<12 or =100 were excluded. Pregnant respondents were also excluded.","","Footnote"
"","","","","","","","","","","","","","","","","","","","","","","","","","","","","","","","","","","","","","","","","Behavioral Risk Factor Surveillance System (BRFSS) - http://www.cdc.gov/brfss/","https://www.cdc.gov/brfss/","Data Source"
"","","","","","","","","","","","","","","","","","","","","","","","","","","","","","","","","","","","","","","","","Centers for Disease Control and Prevention. National Center for Chronic Disease Prevention and Health Promotion, Division of Nutrition, Physical Activity, and Obesity. Data, Trend and Maps [online].","/nccdphp/dnpao/data-trends-maps/index.html","Suggested Citation"
"","","","","","","","","","","","","","","","","","","","","","","","","","","","","","","","","","","","","","","","","Breastfeeding","/breastfeeding/index.htm","Related Links"
"","","","","","","","","","","","","","","","","","","","","","","","","","","","","","","","","","","","","","","","","Division of Nutrition, Physical Activity, and Obesity","/nccdphp/dnpao/index.html","Related Links"
"","","","","","","","","","","","","","","","","","","","","","","","","","","","","","","","","","","","","","","","","Physical Activity","/physicalactivity/index.html","Related Links"
"","","","","","","","","","","","","","","","","","","","","","","","","","","","","","","","","","","","","","","","","Chronic Disease Prevention and Health Promotion","/chronicdisease/index.htm","Related Links"
"","","","","","","","","","","","","","","","","","","","","","","","","","","","","","","","","","","","","","","","","Overweight and Obesity","/obesity/index.html","Related Links"
"","","","","","","","","","","","","","","","","","","","","","","","","","","","","","","","","","","","","","","","","State and Local Programs","/nccdphp/dnpao/state-local-programs/index.html","Related Links"
