"ID","YearStart","YearEnd","Description","LocationAbbr","LocationDesc","DataSource","Class","Topic","Question","Response","Data_Value_Unit","DataValueTypeId","Data_Value_Type","Data_Value","Data_Value_Footnote_Symbol","Data_Value_Footnote","Low_Confidence_Limit","High_Confidence_Limit","Sample_Size","GeoLocation_Lat","GeoLocation_Long","ClassId","TopicId","QuestionId","ResponseId","StratficationCategory1","StratificationCategoryId1","Stratification1","StratificationId1","StratificationCategory2","StratificationCategoryId2","Stratification2","StratificationId2","StratificationCategory3","StratificationCategoryId3","Stratification3","StratificationId3","LocationDisplayOrder","FootnoteSymbol","FootnoteText","URL","FootnoteHeading"
"956","2015","2015","2015","US","National","BRFSS","Obesity / Weight Status","Obesity / Weight Status","Percent of adults aged 18 years and older who have obesity †","","","VALUE","Value","29.9","","","29.1","30.6","54,950","","","OWS","OWS1","Q036","","Income","INC","$50,000 - $74,999","INC5075","","","","","","","","","0","","","",""
"22782","2015","2015","2015","AL","Alabama","BRFSS","Obesity / Weight Status","Obesity / Weight Status","Percent of adults aged 18 years and older who have obesity †","","","VALUE","Value","34.6","","","30.5","38.9","908","32.840571122","-86.631860762","OWS","OWS1","Q036","","Income","INC","$50,000 - $74,999","INC5075","","","","","","","","","1","","","",""
"26918","2015","2015","2015","AK","Alaska","BRFSS","Obesity / Weight Status","Obesity / Weight Status","Percent of adults aged 18 years and older who have obesity †","","","VALUE","Value","29.0","","","23.5","35.0","512","64.845079957001","-147.722059036","OWS","OWS1","Q036","","Income","INC","$50,000 - $74,999","INC5075","","","","","","","","","2","","","",""
"15692","2015","2015","2015","AZ","Arizona","BRFSS","Obesity / Weight Status","Obesity / Weight Status","Percent of adults aged 18 years and older who have obesity †","","","VALUE","Value","30.5","","","26.3","35.1","916","34.86597028","-111.763811277","OWS","OWS1","Q036","","Income","INC","$50,000 - $74,999","INC5075","","","","","","","","","4","","","",""
"31864","2015","2015","2015","AR","Arkansas","BRFSS","Obesity / Weight Status","Obesity / Weight Status","Percent of adults aged 18 years and older who have obesity †","","","VALUE","Value","36.7","","","30.5","43.4","563","34.748650124","-92.274490743","OWS","OWS1","Q036","","Income","INC","$50,000 - $74,999","INC5075","","","","","","","","","5","","","",""
"15301","2015","2015","2015","CA","California","BRFSS","Obesity / Weight Status","Obesity / Weight Status","Percent of adults aged 18 years and older who have obesity †","","","VALUE","Value","25.4","","","22.6","28.4","1,361","37.638640123","-120.999999538","OWS","OWS1","Q036","","Income","INC","$50,000 - $74,999","INC5075","","","","","","","","","6","","","",""
"36251","2015","2015","2015","CO","Colorado","BRFSS","Obesity / Weight Status","Obesity / Weight Status","Percent of adults aged 18 years and older who have obesity †","","","VALUE","Value","21.9","","","19.1","25.0","1,775","38.843840757","-106.133610921","OWS","OWS1","Q036","","Income","INC","$50,000 - $74,999","INC5075","","","","","","","","","8","","","",""
"33652","2015","2015","2015","CT","Connecticut","BRFSS","Obesity / Weight Status","Obesity / Weight Status","Percent of adults aged 18 years and older who have obesity †","","","VALUE","Value","25.2","","","22.1","28.5","1,339","41.56266102","-72.649840952","OWS","OWS1","Q036","","Income","INC","$50,000 - $74,999","INC5075","","","","","","","","","9","","","",""
"11963","2015","2015","2015","DE","Delaware","BRFSS","Obesity / Weight Status","Obesity / Weight Status","Percent of adults aged 18 years and older who have obesity †","","","VALUE","Value","30.2","","","24.5","36.5","471","39.008830667","-75.577741168","OWS","OWS1","Q036","","Income","INC","$50,000 - $74,999","INC5075","","","","","","","","","10","","","",""
"9306","2015","2015","2015","DC","District of Columbia","BRFSS","Obesity / Weight Status","Obesity / Weight Status","Percent of adults aged 18 years and older who have obesity †","","","VALUE","Value","23.9","","","16.5","33.3","361","38.890371385","-77.031961127","OWS","OWS1","Q036","","Income","INC","$50,000 - $74,999","INC5075","","","","","","","","","11","","","",""
"32868","2015","2015","2015","FL","Florida","BRFSS","Obesity / Weight Status","Obesity / Weight Status","Percent of adults aged 18 years and older who have obesity †","","","VALUE","Value","27.1","","","23.7","30.8","1,184","28.932040377","-81.928960539","OWS","OWS1","Q036","","Income","INC","$50,000 - $74,999","INC5075","","","","","","","","","12","","","",""
"3435","2015","2015","2015","GA","Georgia","BRFSS","Obesity / Weight Status","Obesity / Weight Status","Percent of adults aged 18 years and older who have obesity †","","","VALUE","Value","33.2","","","28.0","38.8","536","32.839681093","-83.627580346","OWS","OWS1","Q036","","Income","INC","$50,000 - $74,999","INC5075","","","","","","","","","13","","","",""
"20439","2015","2015","2015","HI","Hawaii","BRFSS","Obesity / Weight Status","Obesity / Weight Status","Percent of adults aged 18 years and older who have obesity †","","","VALUE","Value","24.7","","","21.2","28.5","1,036","21.304850435","-157.857749403","OWS","OWS1","Q036","","Income","INC","$50,000 - $74,999","INC5075","","","","","","","","","15","","","",""
"9191","2015","2015","2015","ID","Idaho","BRFSS","Obesity / Weight Status","Obesity / Weight Status","Percent of adults aged 18 years and older who have obesity †","","","VALUE","Value","26.8","","","22.9","31.0","848","43.682630005","-114.363730042","OWS","OWS1","Q036","","Income","INC","$50,000 - $74,999","INC5075","","","","","","","","","16","","","",""
"10467","2015","2015","2015","IL","Illinois","BRFSS","Obesity / Weight Status","Obesity / Weight Status","Percent of adults aged 18 years and older who have obesity †","","","VALUE","Value","31.6","","","27.4","36.1","714","40.485010283","-88.997710178","OWS","OWS1","Q036","","Income","INC","$50,000 - $74,999","INC5075","","","","","","","","","17","","","",""
"3846","2015","2015","2015","IN","Indiana","BRFSS","Obesity / Weight Status","Obesity / Weight Status","Percent of adults aged 18 years and older who have obesity †","","","VALUE","Value","33.9","","","29.4","38.7","812","39.766910452","-86.149960194","OWS","OWS1","Q036","","Income","INC","$50,000 - $74,999","INC5075","","","","","","","","","18","","","",""
"18476","2015","2015","2015","IA","Iowa","BRFSS","Obesity / Weight Status","Obesity / Weight Status","Percent of adults aged 18 years and older who have obesity †","","","VALUE","Value","38.0","","","33.9","42.2","874","42.469400913","-93.816490556","OWS","OWS1","Q036","","Income","INC","$50,000 - $74,999","INC5075","","","","","","","","","19","","","",""
"29490","2015","2015","2015","KS","Kansas","BRFSS","Obesity / Weight Status","Obesity / Weight Status","Percent of adults aged 18 years and older who have obesity †","","","VALUE","Value","34.3","","","32.3","36.4","3,266","38.3477403","-98.200781227","OWS","OWS1","Q036","","Income","INC","$50,000 - $74,999","INC5075","","","","","","","","","20","","","",""
"20880","2015","2015","2015","KY","Kentucky","BRFSS","Obesity / Weight Status","Obesity / Weight Status","Percent of adults aged 18 years and older who have obesity †","","","VALUE","Value","35.7","","","30.9","40.8","951","37.645970271","-84.774971048","OWS","OWS1","Q036","","Income","INC","$50,000 - $74,999","INC5075","","","","","","","","","21","","","",""
"34991","2015","2015","2015","LA","Louisiana","BRFSS","Obesity / Weight Status","Obesity / Weight Status","Percent of adults aged 18 years and older who have obesity †","","","VALUE","Value","34.2","","","28.8","40.1","490","31.312660644","-92.445680071","OWS","OWS1","Q036","","Income","INC","$50,000 - $74,999","INC5075","","","","","","","","","22","","","",""
"31662","2015","2015","2015","ME","Maine","BRFSS","Obesity / Weight Status","Obesity / Weight Status","Percent of adults aged 18 years and older who have obesity †","","","VALUE","Value","30.1","","","26.9","33.6","1,374","45.254228894001","-68.985031336","OWS","OWS1","Q036","","Income","INC","$50,000 - $74,999","INC5075","","","","","","","","","23","","","",""
"15903","2015","2015","2015","MD","Maryland","BRFSS","Obesity / Weight Status","Obesity / Weight Status","Percent of adults aged 18 years and older who have obesity †","","","VALUE","Value","32.7","","","27.7","38.0","1,399","39.290580964","-76.609260111","OWS","OWS1","Q036","","Income","INC","$50,000 - $74,999","INC5075","","","","","","","","","24","","","",""
"25210","2015","2015","2015","MA","Massachusetts","BRFSS","Obesity / Weight Status","Obesity / Weight Status","Percent of adults aged 18 years and older who have obesity †","","","VALUE","Value","26.8","","","23.0","30.9","925","42.27687047","-72.082690675","OWS","OWS1","Q036","","Income","INC","$50,000 - $74,999","INC5075","","","","","","","","","25","","","",""
"33232","2015","2015","2015","MI","Michigan","BRFSS","Obesity / Weight Status","Obesity / Weight Status","Percent of adults aged 18 years and older who have obesity †","","","VALUE","Value","33.5","","","30.3","36.9","1,197","44.661319543001","-84.71439027","OWS","OWS1","Q036","","Income","INC","$50,000 - $74,999","INC5075","","","","","","","","","26","","","",""
"27683","2015","2015","2015","MN","Minnesota","BRFSS","Obesity / Weight Status","Obesity / Weight Status","Percent of adults aged 18 years and older who have obesity †","","","VALUE","Value","29.3","","","27.2","31.6","2,421","46.355648736","-94.794200503","OWS","OWS1","Q036","","Income","INC","$50,000 - $74,999","INC5075","","","","","","","","","27","","","",""
"18595","2015","2015","2015","MS","Mississippi","BRFSS","Obesity / Weight Status","Obesity / Weight Status","Percent of adults aged 18 years and older who have obesity †","","","VALUE","Value","35.2","","","30.1","40.8","577","32.745510099","-89.538030825","OWS","OWS1","Q036","","Income","INC","$50,000 - $74,999","INC5075","","","","","","","","","28","","","",""
"8457","2015","2015","2015","MO","Missouri","BRFSS","Obesity / Weight Status","Obesity / Weight Status","Percent of adults aged 18 years and older who have obesity †","","","VALUE","Value","31.8","","","27.8","36.1","896","38.635790776","-92.566300053","OWS","OWS1","Q036","","Income","INC","$50,000 - $74,999","INC5075","","","","","","","","","29","","","",""
"8113","2015","2015","2015","MT","Montana","BRFSS","Obesity / Weight Status","Obesity / Weight Status","Percent of adults aged 18 years and older who have obesity †","","","VALUE","Value","24.2","","","20.1","28.9","781","47.066528972","-109.424420645","OWS","OWS1","Q036","","Income","INC","$50,000 - $74,999","INC5075","","","","","","","","","30","","","",""
"12755","2015","2015","2015","NE","Nebraska","BRFSS","Obesity / Weight Status","Obesity / Weight Status","Percent of adults aged 18 years and older who have obesity †","","","VALUE","Value","33.1","","","30.4","35.9","2,575","41.641040988001","-99.365720623","OWS","OWS1","Q036","","Income","INC","$50,000 - $74,999","INC5075","","","","","","","","","31","","","",""
"18431","2015","2015","2015","NV","Nevada","BRFSS","Obesity / Weight Status","Obesity / Weight Status","Percent of adults aged 18 years and older who have obesity †","","","VALUE","Value","30.0","","","23.2","37.9","406","39.49324039","-117.071840564","OWS","OWS1","Q036","","Income","INC","$50,000 - $74,999","INC5075","","","","","","","","","32","","","",""
"37234","2015","2015","2015","NH","New Hampshire","BRFSS","Obesity / Weight Status","Obesity / Weight Status","Percent of adults aged 18 years and older who have obesity †","","","VALUE","Value","30.2","","","26.3","34.5","899","43.655950113","-71.50036092","OWS","OWS1","Q036","","Income","INC","$50,000 - $74,999","INC5075","","","","","","","","","33","","","",""
"30355","2015","2015","2015","NJ","New Jersey","BRFSS","Obesity / Weight Status","Obesity / Weight Status","Percent of adults aged 18 years and older who have obesity †","","","VALUE","Value","26.4","","","22.8","30.4","1,256","40.130570048","-74.273691288","OWS","OWS1","Q036","","Income","INC","$50,000 - $74,999","INC5075","","","","","","","","","34","","","",""
"17193","2015","2015","2015","NM","New Mexico","BRFSS","Obesity / Weight Status","Obesity / Weight Status","Percent of adults aged 18 years and older who have obesity †","","","VALUE","Value","31.3","","","26.6","36.4","805","34.520880952","-106.240580985","OWS","OWS1","Q036","","Income","INC","$50,000 - $74,999","INC5075","","","","","","","","","35","","","",""
"25753","2015","2015","2015","NY","New York","BRFSS","Obesity / Weight Status","Obesity / Weight Status","Percent of adults aged 18 years and older who have obesity †","","","VALUE","Value","25.4","","","22.4","28.7","1,471","42.827001032","-75.543970427","OWS","OWS1","Q036","","Income","INC","$50,000 - $74,999","INC5075","","","","","","","","","36","","","",""
"36199","2015","2015","2015","NC","North Carolina","BRFSS","Obesity / Weight Status","Obesity / Weight Status","Percent of adults aged 18 years and older who have obesity †","","","VALUE","Value","28.7","","","24.8","32.9","769","35.466220975","-79.159250463","OWS","OWS1","Q036","","Income","INC","$50,000 - $74,999","INC5075","","","","","","","","","37","","","",""
"32738","2015","2015","2015","ND","North Dakota","BRFSS","Obesity / Weight Status","Obesity / Weight Status","Percent of adults aged 18 years and older who have obesity †","","","VALUE","Value","30.7","","","26.7","35.0","729","47.475319779","-100.118421049","OWS","OWS1","Q036","","Income","INC","$50,000 - $74,999","INC5075","","","","","","","","","38","","","",""
"7735","2015","2015","2015","OH","Ohio","BRFSS","Obesity / Weight Status","Obesity / Weight Status","Percent of adults aged 18 years and older who have obesity †","","","VALUE","Value","32.3","","","28.7","36.2","1,405","40.060210141","-82.404260056","OWS","OWS1","Q036","","Income","INC","$50,000 - $74,999","INC5075","","","","","","","","","39","","","",""
"19868","2015","2015","2015","OK","Oklahoma","BRFSS","Obesity / Weight Status","Obesity / Weight Status","Percent of adults aged 18 years and older who have obesity †","","","VALUE","Value","33.6","","","29.3","38.2","827","35.472031356","-97.521070214","OWS","OWS1","Q036","","Income","INC","$50,000 - $74,999","INC5075","","","","","","","","","40","","","",""
"23112","2015","2015","2015","OR","Oregon","BRFSS","Obesity / Weight Status","Obesity / Weight Status","Percent of adults aged 18 years and older who have obesity †","","","VALUE","Value","30.5","","","26.2","35.2","657","44.567449424","-120.155031326","OWS","OWS1","Q036","","Income","INC","$50,000 - $74,999","INC5075","","","","","","","","","41","","","",""
"20622","2015","2015","2015","PA","Pennsylvania","BRFSS","Obesity / Weight Status","Obesity / Weight Status","Percent of adults aged 18 years and older who have obesity †","","","VALUE","Value","33.2","","","29.1","37.6","777","40.793730152","-77.860700294","OWS","OWS1","Q036","","Income","INC","$50,000 - $74,999","INC5075","","","","","","","","","42","","","",""
"9827","2015","2015","2015","RI","Rhode Island","BRFSS","Obesity / Weight Status","Obesity / Weight Status","Percent of adults aged 18 years and older who have obesity †","","","VALUE","Value","28.3","","","23.4","33.7","713","41.708280193","-71.522470314","OWS","OWS1","Q036","","Income","INC","$50,000 - $74,999","INC5075","","","","","","","","","44","","","",""
"15054","2015","2015","2015","SC","South Carolina","BRFSS","Obesity / Weight Status","Obesity / Weight Status","Percent of adults aged 18 years and older who have obesity †","","","VALUE","Value","32.1","","","28.7","35.6","1,365","33.998821303","-81.045371207","OWS","OWS1","Q036","","Income","INC","$50,000 - $74,999","INC5075","","","","","","","","","45","","","",""
"31600","2015","2015","2015","SD","South Dakota","BRFSS","Obesity / Weight Status","Obesity / Weight Status","Percent of adults aged 18 years and older who have obesity †","","","VALUE","Value","32.6","","","28.3","37.3","1,066","44.353130053","-100.373530637","OWS","OWS1","Q036","","Income","INC","$50,000 - $74,999","INC5075","","","","","","","","","46","","","",""
"21400","2015","2015","2015","TN","Tennessee","BRFSS","Obesity / Weight Status","Obesity / Weight Status","Percent of adults aged 18 years and older who have obesity †","","","VALUE","Value","37.2","","","32.0","42.8","672","35.68094058","-85.774490914","OWS","OWS1","Q036","","Income","INC","$50,000 - $74,999","INC5075","","","","","","","","","47","","","",""
"11133","2015","2015","2015","TX","Texas","BRFSS","Obesity / Weight Status","Obesity / Weight Status","Percent of adults aged 18 years and older who have obesity †","","","VALUE","Value","29.9","","","25.9","34.2","1,635","31.827240407","-99.426770206","OWS","OWS1","Q036","","Income","INC","$50,000 - $74,999","INC5075","","","","","","","","","48","","","",""
"31982","2015","2015","2015","UT","Utah","BRFSS","Obesity / Weight Status","Obesity / Weight Status","Percent of adults aged 18 years and older who have obesity †","","","VALUE","Value","24.9","","","22.5","27.5","1,728","39.360700171","-111.587130635","OWS","OWS1","Q036","","Income","INC","$50,000 - $74,999","INC5075","","","","","","","","","49","","","",""
"7499","2015","2015","2015","VT","Vermont","BRFSS","Obesity / Weight Status","Obesity / Weight Status","Percent of adults aged 18 years and older who have obesity †","","","VALUE","Value","27.8","","","24.2","31.6","969","43.625381239","-72.517640791","OWS","OWS1","Q036","","Income","INC","$50,000 - $74,999","INC5075","","","","","","","","","50","","","",""
"12702","2015","2015","2015","VA","Virginia","BRFSS","Obesity / Weight Status","Obesity / Weight Status","Percent of adults aged 18 years and older who have obesity †","","","VALUE","Value","30.8","","","27.3","34.5","1,109","37.542680674","-78.457890463","OWS","OWS1","Q036","","Income","INC","$50,000 - $74,999","INC5075","","","","","","","","","51","","","",""
"30399","2015","2015","2015","WA","Washington","BRFSS","Obesity / Weight Status","Obesity / Weight Status","Percent of adults aged 18 years and older who have obesity †","","","VALUE","Value","27.4","","","25.0","30.0","2,235","47.522278629","-120.47001079","OWS","OWS1","Q036","","Income","INC","$50,000 - $74,999","INC5075","","","","","","","","","53","","","",""
"29295","2015","2015","2015","WV","West Virginia","BRFSS","Obesity / Weight Status","Obesity / Weight Status","Percent of adults aged 18 years and older who have obesity †","","","VALUE","Value","39.4","","","35.1","43.8","681","38.665510202","-80.712640135","OWS","OWS1","Q036","","Income","INC","$50,000 - $74,999","INC5075","","","","","","","","","54","","","",""
"17975","2015","2015","2015","WI","Wisconsin","BRFSS","Obesity / Weight Status","Obesity / Weight Status","Percent of adults aged 18 years and older who have obesity †","","","VALUE","Value","28.2","","","24.4","32.4","962","44.393191174","-89.816370742","OWS","OWS1","Q036","","Income","INC","$50,000 - $74,999","INC5075","","","","","","","","","55","","","",""
"15633","2015","2015","2015","WY","Wyoming","BRFSS","Obesity / Weight Status","Obesity / Weight Status","Percent of adults aged 18 years and older who have obesity †","","","VALUE","Value","28.6","","","23.9","33.7","752","43.235541343","-108.109830353","OWS","OWS1","Q036","","Income","INC","$50,000 - $74,999","INC5075","","","","","","","","","56","","","",""
"910","2015","2015","2015","GU","Guam","BRFSS","Obesity / Weight Status","Obesity / Weight Status","Percent of adults aged 18 years and older who have obesity †","","","VALUE","Value","37.1","","","27.5","47.8","201","13.444304","144.793731","OWS","OWS1","Q036","","Income","INC","$50,000 - $74,999","INC5075","","","","","","","","","66","","","",""
"1001","2015","2015","2015","PR","Puerto Rico","BRFSS","Obesity / Weight Status","Obesity / Weight Status","Percent of adults aged 18 years and older who have obesity †","","","VALUE","Value","28.6","","","21.7","36.7","186","18.220833","-66.590149","OWS","OWS1","Q036","","Income","INC","$50,000 - $74,999","INC5075","","","","","","","","","72","","","",""
"","","","","","","","","","","","","","","","","","","","","","","","","","","","","","","","","","","","","","","","†","Obesity is defined as body mass index (BMI) =30.0; BMI was calculated from self-reported weight and height (weight [kg]/ height [m²). Respondents reporting weight< 50 pounds or =650 pounds; height< 3 feet or =8 feet; or BMI:<12 or =100 were excluded. Pregnant respondents were also excluded.","","Footnote"
"","","","","","","","","","","","","","","","","","","","","","","","","","","","","","","","","","","","","","","","","Behavioral Risk Factor Surveillance System (BRFSS) - http://www.cdc.gov/brfss/","https://www.cdc.gov/brfss/","Data Source"
"","","","","","","","","","","","","","","","","","","","","","","","","","","","","","","","","","","","","","","","","Centers for Disease Control and Prevention. National Center for Chronic Disease Prevention and Health Promotion, Division of Nutrition, Physical Activity, and Obesity. Data, Trend and Maps [online].","/nccdphp/dnpao/data-trends-maps/index.html","Suggested Citation"
"","","","","","","","","","","","","","","","","","","","","","","","","","","","","","","","","","","","","","","","","Breastfeeding","/breastfeeding/index.htm","Related Links"
"","","","","","","","","","","","","","","","","","","","","","","","","","","","","","","","","","","","","","","","","Division of Nutrition, Physical Activity, and Obesity","/nccdphp/dnpao/index.html","Related Links"
"","","","","","","","","","","","","","","","","","","","","","","","","","","","","","","","","","","","","","","","","Physical Activity","/physicalactivity/index.html","Related Links"
"","","","","","","","","","","","","","","","","","","","","","","","","","","","","","","","","","","","","","","","","Chronic Disease Prevention and Health Promotion","/chronicdisease/index.htm","Related Links"
"","","","","","","","","","","","","","","","","","","","","","","","","","","","","","","","","","","","","","","","","Overweight and Obesity","/obesity/index.html","Related Links"
"","","","","","","","","","","","","","","","","","","","","","","","","","","","","","","","","","","","","","","","","State and Local Programs","/nccdphp/dnpao/state-local-programs/index.html","Related Links"
