"ID","YearStart","YearEnd","Description","LocationAbbr","LocationDesc","DataSource","Class","Topic","Question","Response","Data_Value_Unit","DataValueTypeId","Data_Value_Type","Data_Value","Data_Value_Footnote_Symbol","Data_Value_Footnote","Low_Confidence_Limit","High_Confidence_Limit","Sample_Size","GeoLocation_Lat","GeoLocation_Long","ClassId","TopicId","QuestionId","ResponseId","StratficationCategory1","StratificationCategoryId1","Stratification1","StratificationId1","StratificationCategory2","StratificationCategoryId2","Stratification2","StratificationId2","StratificationCategory3","StratificationCategoryId3","Stratification3","StratificationId3","LocationDisplayOrder","FootnoteSymbol","FootnoteText","URL","FootnoteHeading"
"1008","2015","2015","2015","US","National","BRFSS","Obesity / Weight Status","Obesity / Weight Status","Percent of adults aged 18 years and older who have obesity †","","","VALUE","Value","33.2","","","32.4","34.0","53,993","","","OWS","OWS1","Q036","","Income","INC","$15,000 - $24,999","INC1525","","","","","","","","","0","","","",""
"34385","2015","2015","2015","AL","Alabama","BRFSS","Obesity / Weight Status","Obesity / Weight Status","Percent of adults aged 18 years and older who have obesity †","","","VALUE","Value","39.3","","","35.7","43.0","1,302","32.840571122","-86.631860762","OWS","OWS1","Q036","","Income","INC","$15,000 - $24,999","INC1525","","","","","","","","","1","","","",""
"17133","2015","2015","2015","AK","Alaska","BRFSS","Obesity / Weight Status","Obesity / Weight Status","Percent of adults aged 18 years and older who have obesity †","","","VALUE","Value","31.0","","","24.1","38.9","391","64.845079957001","-147.722059036","OWS","OWS1","Q036","","Income","INC","$15,000 - $24,999","INC1525","","","","","","","","","2","","","",""
"31368","2015","2015","2015","AZ","Arizona","BRFSS","Obesity / Weight Status","Obesity / Weight Status","Percent of adults aged 18 years and older who have obesity †","","","VALUE","Value","33.5","","","29.2","38.1","1,040","34.86597028","-111.763811277","OWS","OWS1","Q036","","Income","INC","$15,000 - $24,999","INC1525","","","","","","","","","4","","","",""
"29259","2015","2015","2015","AR","Arkansas","BRFSS","Obesity / Weight Status","Obesity / Weight Status","Percent of adults aged 18 years and older who have obesity †","","","VALUE","Value","32.6","","","27.4","38.2","807","34.748650124","-92.274490743","OWS","OWS1","Q036","","Income","INC","$15,000 - $24,999","INC1525","","","","","","","","","5","","","",""
"14640","2015","2015","2015","CA","California","BRFSS","Obesity / Weight Status","Obesity / Weight Status","Percent of adults aged 18 years and older who have obesity †","","","VALUE","Value","28.5","","","25.5","31.7","1,353","37.638640123","-120.999999538","OWS","OWS1","Q036","","Income","INC","$15,000 - $24,999","INC1525","","","","","","","","","6","","","",""
"25427","2015","2015","2015","CO","Colorado","BRFSS","Obesity / Weight Status","Obesity / Weight Status","Percent of adults aged 18 years and older who have obesity †","","","VALUE","Value","22.5","","","19.6","25.7","1,489","38.843840757","-106.133610921","OWS","OWS1","Q036","","Income","INC","$15,000 - $24,999","INC1525","","","","","","","","","8","","","",""
"4347","2015","2015","2015","CT","Connecticut","BRFSS","Obesity / Weight Status","Obesity / Weight Status","Percent of adults aged 18 years and older who have obesity †","","","VALUE","Value","32.1","","","28.4","36.1","1,188","41.56266102","-72.649840952","OWS","OWS1","Q036","","Income","INC","$15,000 - $24,999","INC1525","","","","","","","","","9","","","",""
"22369","2015","2015","2015","DE","Delaware","BRFSS","Obesity / Weight Status","Obesity / Weight Status","Percent of adults aged 18 years and older who have obesity †","","","VALUE","Value","40.6","","","34.8","46.7","532","39.008830667","-75.577741168","OWS","OWS1","Q036","","Income","INC","$15,000 - $24,999","INC1525","","","","","","","","","10","","","",""
"28449","2015","2015","2015","DC","District of Columbia","BRFSS","Obesity / Weight Status","Obesity / Weight Status","Percent of adults aged 18 years and older who have obesity †","","","VALUE","Value","30.3","","","21.8","40.4","366","38.890371385","-77.031961127","OWS","OWS1","Q036","","Income","INC","$15,000 - $24,999","INC1525","","","","","","","","","11","","","",""
"10190","2015","2015","2015","FL","Florida","BRFSS","Obesity / Weight Status","Obesity / Weight Status","Percent of adults aged 18 years and older who have obesity †","","","VALUE","Value","30.0","","","26.7","33.6","1,413","28.932040377","-81.928960539","OWS","OWS1","Q036","","Income","INC","$15,000 - $24,999","INC1525","","","","","","","","","12","","","",""
"26418","2015","2015","2015","GA","Georgia","BRFSS","Obesity / Weight Status","Obesity / Weight Status","Percent of adults aged 18 years and older who have obesity †","","","VALUE","Value","37.1","","","32.3","42.2","693","32.839681093","-83.627580346","OWS","OWS1","Q036","","Income","INC","$15,000 - $24,999","INC1525","","","","","","","","","13","","","",""
"10179","2015","2015","2015","HI","Hawaii","BRFSS","Obesity / Weight Status","Obesity / Weight Status","Percent of adults aged 18 years and older who have obesity †","","","VALUE","Value","22.3","","","18.7","26.3","924","21.304850435","-157.857749403","OWS","OWS1","Q036","","Income","INC","$15,000 - $24,999","INC1525","","","","","","","","","15","","","",""
"29161","2015","2015","2015","ID","Idaho","BRFSS","Obesity / Weight Status","Obesity / Weight Status","Percent of adults aged 18 years and older who have obesity †","","","VALUE","Value","35.2","","","30.4","40.4","799","43.682630005","-114.363730042","OWS","OWS1","Q036","","Income","INC","$15,000 - $24,999","INC1525","","","","","","","","","16","","","",""
"33086","2015","2015","2015","IL","Illinois","BRFSS","Obesity / Weight Status","Obesity / Weight Status","Percent of adults aged 18 years and older who have obesity †","","","VALUE","Value","36.1","","","31.6","40.7","747","40.485010283","-88.997710178","OWS","OWS1","Q036","","Income","INC","$15,000 - $24,999","INC1525","","","","","","","","","17","","","",""
"38874","2015","2015","2015","IN","Indiana","BRFSS","Obesity / Weight Status","Obesity / Weight Status","Percent of adults aged 18 years and older who have obesity †","","","VALUE","Value","34.0","","","29.5","38.9","858","39.766910452","-86.149960194","OWS","OWS1","Q036","","Income","INC","$15,000 - $24,999","INC1525","","","","","","","","","18","","","",""
"34889","2015","2015","2015","IA","Iowa","BRFSS","Obesity / Weight Status","Obesity / Weight Status","Percent of adults aged 18 years and older who have obesity †","","","VALUE","Value","35.1","","","30.4","40.1","719","42.469400913","-93.816490556","OWS","OWS1","Q036","","Income","INC","$15,000 - $24,999","INC1525","","","","","","","","","19","","","",""
"9804","2015","2015","2015","KS","Kansas","BRFSS","Obesity / Weight Status","Obesity / Weight Status","Percent of adults aged 18 years and older who have obesity †","","","VALUE","Value","37.7","","","35.5","40.0","2,777","38.3477403","-98.200781227","OWS","OWS1","Q036","","Income","INC","$15,000 - $24,999","INC1525","","","","","","","","","20","","","",""
"6075","2015","2015","2015","KY","Kentucky","BRFSS","Obesity / Weight Status","Obesity / Weight Status","Percent of adults aged 18 years and older who have obesity †","","","VALUE","Value","41.2","","","35.2","47.5","695","37.645970271","-84.774971048","OWS","OWS1","Q036","","Income","INC","$15,000 - $24,999","INC1525","","","","","","","","","21","","","",""
"12061","2015","2015","2015","LA","Louisiana","BRFSS","Obesity / Weight Status","Obesity / Weight Status","Percent of adults aged 18 years and older who have obesity †","","","VALUE","Value","41.3","","","36.7","46.1","744","31.312660644","-92.445680071","OWS","OWS1","Q036","","Income","INC","$15,000 - $24,999","INC1525","","","","","","","","","22","","","",""
"9234","2015","2015","2015","ME","Maine","BRFSS","Obesity / Weight Status","Obesity / Weight Status","Percent of adults aged 18 years and older who have obesity †","","","VALUE","Value","33.4","","","29.9","37.1","1,319","45.254228894001","-68.985031336","OWS","OWS1","Q036","","Income","INC","$15,000 - $24,999","INC1525","","","","","","","","","23","","","",""
"39469","2015","2015","2015","MD","Maryland","BRFSS","Obesity / Weight Status","Obesity / Weight Status","Percent of adults aged 18 years and older who have obesity †","","","VALUE","Value","29.2","","","24.1","34.9","1,111","39.290580964","-76.609260111","OWS","OWS1","Q036","","Income","INC","$15,000 - $24,999","INC1525","","","","","","","","","24","","","",""
"18839","2015","2015","2015","MA","Massachusetts","BRFSS","Obesity / Weight Status","Obesity / Weight Status","Percent of adults aged 18 years and older who have obesity †","","","VALUE","Value","30.1","","","26.3","34.3","1,006","42.27687047","-72.082690675","OWS","OWS1","Q036","","Income","INC","$15,000 - $24,999","INC1525","","","","","","","","","25","","","",""
"21944","2015","2015","2015","MI","Michigan","BRFSS","Obesity / Weight Status","Obesity / Weight Status","Percent of adults aged 18 years and older who have obesity †","","","VALUE","Value","36.2","","","32.4","40.2","1,056","44.661319543001","-84.71439027","OWS","OWS1","Q036","","Income","INC","$15,000 - $24,999","INC1525","","","","","","","","","26","","","",""
"19856","2015","2015","2015","MN","Minnesota","BRFSS","Obesity / Weight Status","Obesity / Weight Status","Percent of adults aged 18 years and older who have obesity †","","","VALUE","Value","31.1","","","28.2","34.1","1,708","46.355648736","-94.794200503","OWS","OWS1","Q036","","Income","INC","$15,000 - $24,999","INC1525","","","","","","","","","27","","","",""
"11287","2015","2015","2015","MS","Mississippi","BRFSS","Obesity / Weight Status","Obesity / Weight Status","Percent of adults aged 18 years and older who have obesity †","","","VALUE","Value","40.1","","","36.0","44.4","1,137","32.745510099","-89.538030825","OWS","OWS1","Q036","","Income","INC","$15,000 - $24,999","INC1525","","","","","","","","","28","","","",""
"19697","2015","2015","2015","MO","Missouri","BRFSS","Obesity / Weight Status","Obesity / Weight Status","Percent of adults aged 18 years and older who have obesity †","","","VALUE","Value","34.5","","","30.0","39.2","928","38.635790776","-92.566300053","OWS","OWS1","Q036","","Income","INC","$15,000 - $24,999","INC1525","","","","","","","","","29","","","",""
"27953","2015","2015","2015","MT","Montana","BRFSS","Obesity / Weight Status","Obesity / Weight Status","Percent of adults aged 18 years and older who have obesity †","","","VALUE","Value","26.9","","","22.7","31.5","812","47.066528972","-109.424420645","OWS","OWS1","Q036","","Income","INC","$15,000 - $24,999","INC1525","","","","","","","","","30","","","",""
"37019","2015","2015","2015","NE","Nebraska","BRFSS","Obesity / Weight Status","Obesity / Weight Status","Percent of adults aged 18 years and older who have obesity †","","","VALUE","Value","34.5","","","31.3","37.9","2,313","41.641040988001","-99.365720623","OWS","OWS1","Q036","","Income","INC","$15,000 - $24,999","INC1525","","","","","","","","","31","","","",""
"9659","2015","2015","2015","NV","Nevada","BRFSS","Obesity / Weight Status","Obesity / Weight Status","Percent of adults aged 18 years and older who have obesity †","","","VALUE","Value","25.7","","","19.5","32.9","379","39.49324039","-117.071840564","OWS","OWS1","Q036","","Income","INC","$15,000 - $24,999","INC1525","","","","","","","","","32","","","",""
"13981","2015","2015","2015","NH","New Hampshire","BRFSS","Obesity / Weight Status","Obesity / Weight Status","Percent of adults aged 18 years and older who have obesity †","","","VALUE","Value","29.7","","","25.0","34.9","691","43.655950113","-71.50036092","OWS","OWS1","Q036","","Income","INC","$15,000 - $24,999","INC1525","","","","","","","","","33","","","",""
"15638","2015","2015","2015","NJ","New Jersey","BRFSS","Obesity / Weight Status","Obesity / Weight Status","Percent of adults aged 18 years and older who have obesity †","","","VALUE","Value","31.5","","","27.4","35.9","1,266","40.130570048","-74.273691288","OWS","OWS1","Q036","","Income","INC","$15,000 - $24,999","INC1525","","","","","","","","","34","","","",""
"24284","2015","2015","2015","NM","New Mexico","BRFSS","Obesity / Weight Status","Obesity / Weight Status","Percent of adults aged 18 years and older who have obesity †","","","VALUE","Value","33.5","","","29.5","37.7","1,152","34.520880952","-106.240580985","OWS","OWS1","Q036","","Income","INC","$15,000 - $24,999","INC1525","","","","","","","","","35","","","",""
"33633","2015","2015","2015","NY","New York","BRFSS","Obesity / Weight Status","Obesity / Weight Status","Percent of adults aged 18 years and older who have obesity †","","","VALUE","Value","28.7","","","25.8","31.8","1,611","42.827001032","-75.543970427","OWS","OWS1","Q036","","Income","INC","$15,000 - $24,999","INC1525","","","","","","","","","36","","","",""
"35088","2015","2015","2015","NC","North Carolina","BRFSS","Obesity / Weight Status","Obesity / Weight Status","Percent of adults aged 18 years and older who have obesity †","","","VALUE","Value","35.6","","","32.1","39.3","1,014","35.466220975","-79.159250463","OWS","OWS1","Q036","","Income","INC","$15,000 - $24,999","INC1525","","","","","","","","","37","","","",""
"29088","2015","2015","2015","ND","North Dakota","BRFSS","Obesity / Weight Status","Obesity / Weight Status","Percent of adults aged 18 years and older who have obesity †","","","VALUE","Value","35.0","","","29.4","41.0","519","47.475319779","-100.118421049","OWS","OWS1","Q036","","Income","INC","$15,000 - $24,999","INC1525","","","","","","","","","38","","","",""
"17470","2015","2015","2015","OH","Ohio","BRFSS","Obesity / Weight Status","Obesity / Weight Status","Percent of adults aged 18 years and older who have obesity †","","","VALUE","Value","32.8","","","28.9","36.8","1,770","40.060210141","-82.404260056","OWS","OWS1","Q036","","Income","INC","$15,000 - $24,999","INC1525","","","","","","","","","39","","","",""
"30570","2015","2015","2015","OK","Oklahoma","BRFSS","Obesity / Weight Status","Obesity / Weight Status","Percent of adults aged 18 years and older who have obesity †","","","VALUE","Value","38.1","","","33.8","42.5","1,062","35.472031356","-97.521070214","OWS","OWS1","Q036","","Income","INC","$15,000 - $24,999","INC1525","","","","","","","","","40","","","",""
"24862","2015","2015","2015","OR","Oregon","BRFSS","Obesity / Weight Status","Obesity / Weight Status","Percent of adults aged 18 years and older who have obesity †","","","VALUE","Value","33.9","","","29.4","38.8","671","44.567449424","-120.155031326","OWS","OWS1","Q036","","Income","INC","$15,000 - $24,999","INC1525","","","","","","","","","41","","","",""
"3211","2015","2015","2015","PA","Pennsylvania","BRFSS","Obesity / Weight Status","Obesity / Weight Status","Percent of adults aged 18 years and older who have obesity †","","","VALUE","Value","36.2","","","31.1","41.5","704","40.793730152","-77.860700294","OWS","OWS1","Q036","","Income","INC","$15,000 - $24,999","INC1525","","","","","","","","","42","","","",""
"37819","2015","2015","2015","RI","Rhode Island","BRFSS","Obesity / Weight Status","Obesity / Weight Status","Percent of adults aged 18 years and older who have obesity †","","","VALUE","Value","29.1","","","24.2","34.4","668","41.708280193","-71.522470314","OWS","OWS1","Q036","","Income","INC","$15,000 - $24,999","INC1525","","","","","","","","","44","","","",""
"8255","2015","2015","2015","SC","South Carolina","BRFSS","Obesity / Weight Status","Obesity / Weight Status","Percent of adults aged 18 years and older who have obesity †","","","VALUE","Value","34.1","","","31.0","37.3","1,741","33.998821303","-81.045371207","OWS","OWS1","Q036","","Income","INC","$15,000 - $24,999","INC1525","","","","","","","","","45","","","",""
"9603","2015","2015","2015","SD","South Dakota","BRFSS","Obesity / Weight Status","Obesity / Weight Status","Percent of adults aged 18 years and older who have obesity †","","","VALUE","Value","32.3","","","26.9","38.3","807","44.353130053","-100.373530637","OWS","OWS1","Q036","","Income","INC","$15,000 - $24,999","INC1525","","","","","","","","","46","","","",""
"35130","2015","2015","2015","TN","Tennessee","BRFSS","Obesity / Weight Status","Obesity / Weight Status","Percent of adults aged 18 years and older who have obesity †","","","VALUE","Value","35.2","","","30.5","40.3","930","35.68094058","-85.774490914","OWS","OWS1","Q036","","Income","INC","$15,000 - $24,999","INC1525","","","","","","","","","47","","","",""
"24324","2015","2015","2015","TX","Texas","BRFSS","Obesity / Weight Status","Obesity / Weight Status","Percent of adults aged 18 years and older who have obesity †","","","VALUE","Value","36.0","","","32.2","40.0","2,062","31.827240407","-99.426770206","OWS","OWS1","Q036","","Income","INC","$15,000 - $24,999","INC1525","","","","","","","","","48","","","",""
"4801","2015","2015","2015","UT","Utah","BRFSS","Obesity / Weight Status","Obesity / Weight Status","Percent of adults aged 18 years and older who have obesity †","","","VALUE","Value","26.0","","","22.8","29.5","1,108","39.360700171","-111.587130635","OWS","OWS1","Q036","","Income","INC","$15,000 - $24,999","INC1525","","","","","","","","","49","","","",""
"5094","2015","2015","2015","VT","Vermont","BRFSS","Obesity / Weight Status","Obesity / Weight Status","Percent of adults aged 18 years and older who have obesity †","","","VALUE","Value","30.9","","","26.6","35.5","720","43.625381239","-72.517640791","OWS","OWS1","Q036","","Income","INC","$15,000 - $24,999","INC1525","","","","","","","","","50","","","",""
"19508","2015","2015","2015","VA","Virginia","BRFSS","Obesity / Weight Status","Obesity / Weight Status","Percent of adults aged 18 years and older who have obesity †","","","VALUE","Value","34.0","","","30.0","38.2","1,013","37.542680674","-78.457890463","OWS","OWS1","Q036","","Income","INC","$15,000 - $24,999","INC1525","","","","","","","","","51","","","",""
"17241","2015","2015","2015","WA","Washington","BRFSS","Obesity / Weight Status","Obesity / Weight Status","Percent of adults aged 18 years and older who have obesity †","","","VALUE","Value","29.6","","","26.4","32.9","1,555","47.522278629","-120.47001079","OWS","OWS1","Q036","","Income","INC","$15,000 - $24,999","INC1525","","","","","","","","","53","","","",""
"28131","2015","2015","2015","WV","West Virginia","BRFSS","Obesity / Weight Status","Obesity / Weight Status","Percent of adults aged 18 years and older who have obesity †","","","VALUE","Value","38.9","","","35.0","42.8","828","38.665510202","-80.712640135","OWS","OWS1","Q036","","Income","INC","$15,000 - $24,999","INC1525","","","","","","","","","54","","","",""
"20762","2015","2015","2015","WI","Wisconsin","BRFSS","Obesity / Weight Status","Obesity / Weight Status","Percent of adults aged 18 years and older who have obesity †","","","VALUE","Value","38.4","","","33.4","43.6","818","44.393191174","-89.816370742","OWS","OWS1","Q036","","Income","INC","$15,000 - $24,999","INC1525","","","","","","","","","55","","","",""
"14983","2015","2015","2015","WY","Wyoming","BRFSS","Obesity / Weight Status","Obesity / Weight Status","Percent of adults aged 18 years and older who have obesity †","","","VALUE","Value","35.9","","","29.7","42.6","677","43.235541343","-108.109830353","OWS","OWS1","Q036","","Income","INC","$15,000 - $24,999","INC1525","","","","","","","","","56","","","",""
"207","2015","2015","2015","GU","Guam","BRFSS","Obesity / Weight Status","Obesity / Weight Status","Percent of adults aged 18 years and older who have obesity †","","","VALUE","Value","32.0","","","24.3","40.7","289","13.444304","144.793731","OWS","OWS1","Q036","","Income","INC","$15,000 - $24,999","INC1525","","","","","","","","","66","","","",""
"609","2015","2015","2015","PR","Puerto Rico","BRFSS","Obesity / Weight Status","Obesity / Weight Status","Percent of adults aged 18 years and older who have obesity †","","","VALUE","Value","32.6","","","29.4","36.0","1,217","18.220833","-66.590149","OWS","OWS1","Q036","","Income","INC","$15,000 - $24,999","INC1525","","","","","","","","","72","","","",""
"","","","","","","","","","","","","","","","","","","","","","","","","","","","","","","","","","","","","","","","†","Obesity is defined as body mass index (BMI) =30.0; BMI was calculated from self-reported weight and height (weight [kg]/ height [m²). Respondents reporting weight< 50 pounds or =650 pounds; height< 3 feet or =8 feet; or BMI:<12 or =100 were excluded. Pregnant respondents were also excluded.","","Footnote"
"","","","","","","","","","","","","","","","","","","","","","","","","","","","","","","","","","","","","","","","","Behavioral Risk Factor Surveillance System (BRFSS) - http://www.cdc.gov/brfss/","https://www.cdc.gov/brfss/","Data Source"
"","","","","","","","","","","","","","","","","","","","","","","","","","","","","","","","","","","","","","","","","Centers for Disease Control and Prevention. National Center for Chronic Disease Prevention and Health Promotion, Division of Nutrition, Physical Activity, and Obesity. Data, Trend and Maps [online].","/nccdphp/dnpao/data-trends-maps/index.html","Suggested Citation"
"","","","","","","","","","","","","","","","","","","","","","","","","","","","","","","","","","","","","","","","","Breastfeeding","/breastfeeding/index.htm","Related Links"
"","","","","","","","","","","","","","","","","","","","","","","","","","","","","","","","","","","","","","","","","Division of Nutrition, Physical Activity, and Obesity","/nccdphp/dnpao/index.html","Related Links"
"","","","","","","","","","","","","","","","","","","","","","","","","","","","","","","","","","","","","","","","","Physical Activity","/physicalactivity/index.html","Related Links"
"","","","","","","","","","","","","","","","","","","","","","","","","","","","","","","","","","","","","","","","","Chronic Disease Prevention and Health Promotion","/chronicdisease/index.htm","Related Links"
"","","","","","","","","","","","","","","","","","","","","","","","","","","","","","","","","","","","","","","","","Overweight and Obesity","/obesity/index.html","Related Links"
"","","","","","","","","","","","","","","","","","","","","","","","","","","","","","","","","","","","","","","","","State and Local Programs","/nccdphp/dnpao/state-local-programs/index.html","Related Links"
