"ID","YearStart","YearEnd","Description","LocationAbbr","LocationDesc","DataSource","Class","Topic","Question","Response","Data_Value_Unit","DataValueTypeId","Data_Value_Type","Data_Value","Data_Value_Footnote_Symbol","Data_Value_Footnote","Low_Confidence_Limit","High_Confidence_Limit","Sample_Size","GeoLocation_Lat","GeoLocation_Long","ClassId","TopicId","QuestionId","ResponseId","StratficationCategory1","StratificationCategoryId1","Stratification1","StratificationId1","StratificationCategory2","StratificationCategoryId2","Stratification2","StratificationId2","StratificationCategory3","StratificationCategoryId3","Stratification3","StratificationId3","LocationDisplayOrder","FootnoteSymbol","FootnoteText","URL","FootnoteHeading"
"41895","2016","2016","2016","US","National","BRFSS","Obesity / Weight Status","Obesity / Weight Status","Percent of adults aged 18 years and older who have obesity †","","","VALUE","Value","33.4","","","32.6","34.1","62,605","","","OWS","OWS1","Q036","","Income","INC","$15,000 - $24,999","INC1525","","","","","","","","","0","","","",""
"42929","2016","2016","2016","AL","Alabama","BRFSS","Obesity / Weight Status","Obesity / Weight Status","Percent of adults aged 18 years and older who have obesity †","","","VALUE","Value","40.4","","","36.5","44.4","1,088","32.840571122","-86.631860762","OWS","OWS1","Q036","","Income","INC","$15,000 - $24,999","INC1525","","","","","","","","","1","","","",""
"42291","2016","2016","2016","AK","Alaska","BRFSS","Obesity / Weight Status","Obesity / Weight Status","Percent of adults aged 18 years and older who have obesity †","","","VALUE","Value","36.3","","","27.8","45.6","318","64.845079957001","-147.722059036","OWS","OWS1","Q036","","Income","INC","$15,000 - $24,999","INC1525","","","","","","","","","2","","","",""
"42017","2016","2016","2016","AZ","Arizona","BRFSS","Obesity / Weight Status","Obesity / Weight Status","Percent of adults aged 18 years and older who have obesity †","","","VALUE","Value","36.2","","","31.7","40.9","1,379","34.86597028","-111.763811277","OWS","OWS1","Q036","","Income","INC","$15,000 - $24,999","INC1525","","","","","","","","","4","","","",""
"40933","2016","2016","2016","AR","Arkansas","BRFSS","Obesity / Weight Status","Obesity / Weight Status","Percent of adults aged 18 years and older who have obesity †","","","VALUE","Value","33.5","","","28.0","39.5","831","34.748650124","-92.274490743","OWS","OWS1","Q036","","Income","INC","$15,000 - $24,999","INC1525","","","","","","","","","5","","","",""
"41047","2016","2016","2016","CA","California","BRFSS","Obesity / Weight Status","Obesity / Weight Status","Percent of adults aged 18 years and older who have obesity †","","","VALUE","Value","29.3","","","26.3","32.5","1,218","37.638640123","-120.999999538","OWS","OWS1","Q036","","Income","INC","$15,000 - $24,999","INC1525","","","","","","","","","6","","","",""
"41493","2016","2016","2016","CO","Colorado","BRFSS","Obesity / Weight Status","Obesity / Weight Status","Percent of adults aged 18 years and older who have obesity †","","","VALUE","Value","26.5","","","23.7","29.5","1,579","38.843840757","-106.133610921","OWS","OWS1","Q036","","Income","INC","$15,000 - $24,999","INC1525","","","","","","","","","8","","","",""
"42588","2016","2016","2016","CT","Connecticut","BRFSS","Obesity / Weight Status","Obesity / Weight Status","Percent of adults aged 18 years and older who have obesity †","","","VALUE","Value","31.4","","","27.6","35.4","1,018","41.56266102","-72.649840952","OWS","OWS1","Q036","","Income","INC","$15,000 - $24,999","INC1525","","","","","","","","","9","","","",""
"41723","2016","2016","2016","DE","Delaware","BRFSS","Obesity / Weight Status","Obesity / Weight Status","Percent of adults aged 18 years and older who have obesity †","","","VALUE","Value","34.9","","","29.7","40.5","556","39.008830667","-75.577741168","OWS","OWS1","Q036","","Income","INC","$15,000 - $24,999","INC1525","","","","","","","","","10","","","",""
"41017","2016","2016","2016","DC","District of Columbia","BRFSS","Obesity / Weight Status","Obesity / Weight Status","Percent of adults aged 18 years and older who have obesity †","","","VALUE","Value","36.7","","","30.4","43.5","373","38.890371385","-77.031961127","OWS","OWS1","Q036","","Income","INC","$15,000 - $24,999","INC1525","","","","","","","","","11","","","",""
"39623","2016","2016","2016","FL","Florida","BRFSS","Obesity / Weight Status","Obesity / Weight Status","Percent of adults aged 18 years and older who have obesity †","","","VALUE","Value","31.3","","","28.8","33.9","6,150","28.932040377","-81.928960539","OWS","OWS1","Q036","","Income","INC","$15,000 - $24,999","INC1525","","","","","","","","","12","","","",""
"42759","2016","2016","2016","GA","Georgia","BRFSS","Obesity / Weight Status","Obesity / Weight Status","Percent of adults aged 18 years and older who have obesity †","","","VALUE","Value","35.4","","","31.1","40.0","824","32.839681093","-83.627580346","OWS","OWS1","Q036","","Income","INC","$15,000 - $24,999","INC1525","","","","","","","","","13","","","",""
"41128","2016","2016","2016","HI","Hawaii","BRFSS","Obesity / Weight Status","Obesity / Weight Status","Percent of adults aged 18 years and older who have obesity †","","","VALUE","Value","23.3","","","20.0","26.9","1,019","21.304850435","-157.857749403","OWS","OWS1","Q036","","Income","INC","$15,000 - $24,999","INC1525","","","","","","","","","15","","","",""
"43277","2016","2016","2016","ID","Idaho","BRFSS","Obesity / Weight Status","Obesity / Weight Status","Percent of adults aged 18 years and older who have obesity †","","","VALUE","Value","32.3","","","27.7","37.1","771","43.682630005","-114.363730042","OWS","OWS1","Q036","","Income","INC","$15,000 - $24,999","INC1525","","","","","","","","","16","","","",""
"42946","2016","2016","2016","IL","Illinois","BRFSS","Obesity / Weight Status","Obesity / Weight Status","Percent of adults aged 18 years and older who have obesity †","","","VALUE","Value","34.7","","","30.2","39.4","671","40.485010283","-88.997710178","OWS","OWS1","Q036","","Income","INC","$15,000 - $24,999","INC1525","","","","","","","","","17","","","",""
"41179","2016","2016","2016","IN","Indiana","BRFSS","Obesity / Weight Status","Obesity / Weight Status","Percent of adults aged 18 years and older who have obesity †","","","VALUE","Value","35.3","","","32.1","38.7","1,731","39.766910452","-86.149960194","OWS","OWS1","Q036","","Income","INC","$15,000 - $24,999","INC1525","","","","","","","","","18","","","",""
"44273","2016","2016","2016","IA","Iowa","BRFSS","Obesity / Weight Status","Obesity / Weight Status","Percent of adults aged 18 years and older who have obesity †","","","VALUE","Value","34.1","","","30.0","38.6","871","42.469400913","-93.816490556","OWS","OWS1","Q036","","Income","INC","$15,000 - $24,999","INC1525","","","","","","","","","19","","","",""
"41458","2016","2016","2016","KS","Kansas","BRFSS","Obesity / Weight Status","Obesity / Weight Status","Percent of adults aged 18 years and older who have obesity †","","","VALUE","Value","34.7","","","31.5","38.0","1,408","38.3477403","-98.200781227","OWS","OWS1","Q036","","Income","INC","$15,000 - $24,999","INC1525","","","","","","","","","20","","","",""
"41870","2016","2016","2016","KY","Kentucky","BRFSS","Obesity / Weight Status","Obesity / Weight Status","Percent of adults aged 18 years and older who have obesity †","","","VALUE","Value","38.5","","","34.8","42.3","1,341","37.645970271","-84.774971048","OWS","OWS1","Q036","","Income","INC","$15,000 - $24,999","INC1525","","","","","","","","","21","","","",""
"39995","2016","2016","2016","LA","Louisiana","BRFSS","Obesity / Weight Status","Obesity / Weight Status","Percent of adults aged 18 years and older who have obesity †","","","VALUE","Value","42.7","","","37.1","48.6","842","31.312660644","-92.445680071","OWS","OWS1","Q036","","Income","INC","$15,000 - $24,999","INC1525","","","","","","","","","22","","","",""
"43831","2016","2016","2016","ME","Maine","BRFSS","Obesity / Weight Status","Obesity / Weight Status","Percent of adults aged 18 years and older who have obesity †","","","VALUE","Value","31.1","","","27.5","34.9","1,497","45.254228894001","-68.985031336","OWS","OWS1","Q036","","Income","INC","$15,000 - $24,999","INC1525","","","","","","","","","23","","","",""
"43520","2016","2016","2016","MD","Maryland","BRFSS","Obesity / Weight Status","Obesity / Weight Status","Percent of adults aged 18 years and older who have obesity †","","","VALUE","Value","36.6","","","32.9","40.5","1,730","39.290580964","-76.609260111","OWS","OWS1","Q036","","Income","INC","$15,000 - $24,999","INC1525","","","","","","","","","24","","","",""
"42234","2016","2016","2016","MA","Massachusetts","BRFSS","Obesity / Weight Status","Obesity / Weight Status","Percent of adults aged 18 years and older who have obesity †","","","VALUE","Value","31.9","","","25.8","38.7","401","42.27687047","-72.082690675","OWS","OWS1","Q036","","Income","INC","$15,000 - $24,999","INC1525","","","","","","","","","25","","","",""
"42894","2016","2016","2016","MI","Michigan","BRFSS","Obesity / Weight Status","Obesity / Weight Status","Percent of adults aged 18 years and older who have obesity †","","","VALUE","Value","34.5","","","31.4","37.7","1,513","44.661319543001","-84.71439027","OWS","OWS1","Q036","","Income","INC","$15,000 - $24,999","INC1525","","","","","","","","","26","","","",""
"39531","2016","2016","2016","MN","Minnesota","BRFSS","Obesity / Weight Status","Obesity / Weight Status","Percent of adults aged 18 years and older who have obesity †","","","VALUE","Value","35.2","","","32.5","38.0","1,800","46.355648736","-94.794200503","OWS","OWS1","Q036","","Income","INC","$15,000 - $24,999","INC1525","","","","","","","","","27","","","",""
"39962","2016","2016","2016","MS","Mississippi","BRFSS","Obesity / Weight Status","Obesity / Weight Status","Percent of adults aged 18 years and older who have obesity †","","","VALUE","Value","41.9","","","37.6","46.3","964","32.745510099","-89.538030825","OWS","OWS1","Q036","","Income","INC","$15,000 - $24,999","INC1525","","","","","","","","","28","","","",""
"42663","2016","2016","2016","MO","Missouri","BRFSS","Obesity / Weight Status","Obesity / Weight Status","Percent of adults aged 18 years and older who have obesity †","","","VALUE","Value","36.7","","","31.9","41.8","976","38.635790776","-92.566300053","OWS","OWS1","Q036","","Income","INC","$15,000 - $24,999","INC1525","","","","","","","","","29","","","",""
"42190","2016","2016","2016","MT","Montana","BRFSS","Obesity / Weight Status","Obesity / Weight Status","Percent of adults aged 18 years and older who have obesity †","","","VALUE","Value","27.2","","","23.2","31.6","888","47.066528972","-109.424420645","OWS","OWS1","Q036","","Income","INC","$15,000 - $24,999","INC1525","","","","","","","","","30","","","",""
"44058","2016","2016","2016","NE","Nebraska","BRFSS","Obesity / Weight Status","Obesity / Weight Status","Percent of adults aged 18 years and older who have obesity †","","","VALUE","Value","33.7","","","30.4","37.1","2,076","41.641040988001","-99.365720623","OWS","OWS1","Q036","","Income","INC","$15,000 - $24,999","INC1525","","","","","","","","","31","","","",""
"40408","2016","2016","2016","NV","Nevada","BRFSS","Obesity / Weight Status","Obesity / Weight Status","Percent of adults aged 18 years and older who have obesity †","","","VALUE","Value","29.3","","","24.1","35.1","554","39.49324039","-117.071840564","OWS","OWS1","Q036","","Income","INC","$15,000 - $24,999","INC1525","","","","","","","","","32","","","",""
"43396","2016","2016","2016","NH","New Hampshire","BRFSS","Obesity / Weight Status","Obesity / Weight Status","Percent of adults aged 18 years and older who have obesity †","","","VALUE","Value","32.0","","","26.9","37.5","688","43.655950113","-71.50036092","OWS","OWS1","Q036","","Income","INC","$15,000 - $24,999","INC1525","","","","","","","","","33","","","",""
"42960","2016","2016","2016","NJ","New Jersey","BRFSS","Obesity / Weight Status","Obesity / Weight Status","Percent of adults aged 18 years and older who have obesity †","","","VALUE","Value","31.7","","","27.0","36.8","957","40.130570048","-74.273691288","OWS","OWS1","Q036","","Income","INC","$15,000 - $24,999","INC1525","","","","","","","","","34","","","",""
"41875","2016","2016","2016","NM","New Mexico","BRFSS","Obesity / Weight Status","Obesity / Weight Status","Percent of adults aged 18 years and older who have obesity †","","","VALUE","Value","27.7","","","24.2","31.5","1,095","34.520880952","-106.240580985","OWS","OWS1","Q036","","Income","INC","$15,000 - $24,999","INC1525","","","","","","","","","35","","","",""
"44781","2016","2016","2016","NY","New York","BRFSS","Obesity / Weight Status","Obesity / Weight Status","Percent of adults aged 18 years and older who have obesity †","","","VALUE","Value","30.3","","","27.7","33.1","4,999","42.827001032","-75.543970427","OWS","OWS1","Q036","","Income","INC","$15,000 - $24,999","INC1525","","","","","","","","","36","","","",""
"40978","2016","2016","2016","NC","North Carolina","BRFSS","Obesity / Weight Status","Obesity / Weight Status","Percent of adults aged 18 years and older who have obesity †","","","VALUE","Value","37.5","","","33.8","41.4","993","35.466220975","-79.159250463","OWS","OWS1","Q036","","Income","INC","$15,000 - $24,999","INC1525","","","","","","","","","37","","","",""
"40425","2016","2016","2016","ND","North Dakota","BRFSS","Obesity / Weight Status","Obesity / Weight Status","Percent of adults aged 18 years and older who have obesity †","","","VALUE","Value","33.7","","","28.8","39.0","602","47.475319779","-100.118421049","OWS","OWS1","Q036","","Income","INC","$15,000 - $24,999","INC1525","","","","","","","","","38","","","",""
"40730","2016","2016","2016","OH","Ohio","BRFSS","Obesity / Weight Status","Obesity / Weight Status","Percent of adults aged 18 years and older who have obesity †","","","VALUE","Value","34.7","","","31.2","38.4","1,924","40.060210141","-82.404260056","OWS","OWS1","Q036","","Income","INC","$15,000 - $24,999","INC1525","","","","","","","","","39","","","",""
"42392","2016","2016","2016","OK","Oklahoma","BRFSS","Obesity / Weight Status","Obesity / Weight Status","Percent of adults aged 18 years and older who have obesity †","","","VALUE","Value","35.6","","","31.7","39.8","1,016","35.472031356","-97.521070214","OWS","OWS1","Q036","","Income","INC","$15,000 - $24,999","INC1525","","","","","","","","","40","","","",""
"40610","2016","2016","2016","OR","Oregon","BRFSS","Obesity / Weight Status","Obesity / Weight Status","Percent of adults aged 18 years and older who have obesity †","","","VALUE","Value","32.7","","","28.6","37.1","681","44.567449424","-120.155031326","OWS","OWS1","Q036","","Income","INC","$15,000 - $24,999","INC1525","","","","","","","","","41","","","",""
"43614","2016","2016","2016","PA","Pennsylvania","BRFSS","Obesity / Weight Status","Obesity / Weight Status","Percent of adults aged 18 years and older who have obesity †","","","VALUE","Value","35.0","","","31.1","39.1","903","40.793730152","-77.860700294","OWS","OWS1","Q036","","Income","INC","$15,000 - $24,999","INC1525","","","","","","","","","42","","","",""
"40163","2016","2016","2016","RI","Rhode Island","BRFSS","Obesity / Weight Status","Obesity / Weight Status","Percent of adults aged 18 years and older who have obesity †","","","VALUE","Value","31.9","","","27.0","37.3","656","41.708280193","-71.522470314","OWS","OWS1","Q036","","Income","INC","$15,000 - $24,999","INC1525","","","","","","","","","44","","","",""
"42143","2016","2016","2016","SC","South Carolina","BRFSS","Obesity / Weight Status","Obesity / Weight Status","Percent of adults aged 18 years and older who have obesity †","","","VALUE","Value","35.0","","","31.9","38.3","1,725","33.998821303","-81.045371207","OWS","OWS1","Q036","","Income","INC","$15,000 - $24,999","INC1525","","","","","","","","","45","","","",""
"41205","2016","2016","2016","SD","South Dakota","BRFSS","Obesity / Weight Status","Obesity / Weight Status","Percent of adults aged 18 years and older who have obesity †","","","VALUE","Value","27.9","","","21.9","34.7","613","44.353130053","-100.373530637","OWS","OWS1","Q036","","Income","INC","$15,000 - $24,999","INC1525","","","","","","","","","46","","","",""
"43630","2016","2016","2016","TN","Tennessee","BRFSS","Obesity / Weight Status","Obesity / Weight Status","Percent of adults aged 18 years and older who have obesity †","","","VALUE","Value","37.8","","","33.1","42.6","929","35.68094058","-85.774490914","OWS","OWS1","Q036","","Income","INC","$15,000 - $24,999","INC1525","","","","","","","","","47","","","",""
"42964","2016","2016","2016","TX","Texas","BRFSS","Obesity / Weight Status","Obesity / Weight Status","Percent of adults aged 18 years and older who have obesity †","","","VALUE","Value","30.9","","","26.9","35.2","1,628","31.827240407","-99.426770206","OWS","OWS1","Q036","","Income","INC","$15,000 - $24,999","INC1525","","","","","","","","","48","","","",""
"41224","2016","2016","2016","UT","Utah","BRFSS","Obesity / Weight Status","Obesity / Weight Status","Percent of adults aged 18 years and older who have obesity †","","","VALUE","Value","26.1","","","22.6","29.9","1,054","39.360700171","-111.587130635","OWS","OWS1","Q036","","Income","INC","$15,000 - $24,999","INC1525","","","","","","","","","49","","","",""
"40994","2016","2016","2016","VT","Vermont","BRFSS","Obesity / Weight Status","Obesity / Weight Status","Percent of adults aged 18 years and older who have obesity †","","","VALUE","Value","29.5","","","25.0","34.5","775","43.625381239","-72.517640791","OWS","OWS1","Q036","","Income","INC","$15,000 - $24,999","INC1525","","","","","","","","","50","","","",""
"41881","2016","2016","2016","VA","Virginia","BRFSS","Obesity / Weight Status","Obesity / Weight Status","Percent of adults aged 18 years and older who have obesity †","","","VALUE","Value","34.9","","","31.3","38.5","1,158","37.542680674","-78.457890463","OWS","OWS1","Q036","","Income","INC","$15,000 - $24,999","INC1525","","","","","","","","","51","","","",""
"40944","2016","2016","2016","WA","Washington","BRFSS","Obesity / Weight Status","Obesity / Weight Status","Percent of adults aged 18 years and older who have obesity †","","","VALUE","Value","32.4","","","29.3","35.7","1,418","47.522278629","-120.47001079","OWS","OWS1","Q036","","Income","INC","$15,000 - $24,999","INC1525","","","","","","","","","53","","","",""
"41148","2016","2016","2016","WV","West Virginia","BRFSS","Obesity / Weight Status","Obesity / Weight Status","Percent of adults aged 18 years and older who have obesity †","","","VALUE","Value","37.9","","","34.6","41.4","1,122","38.665510202","-80.712640135","OWS","OWS1","Q036","","Income","INC","$15,000 - $24,999","INC1525","","","","","","","","","54","","","",""
"42534","2016","2016","2016","WI","Wisconsin","BRFSS","Obesity / Weight Status","Obesity / Weight Status","Percent of adults aged 18 years and older who have obesity †","","","VALUE","Value","33.2","","","28.5","38.2","656","44.393191174","-89.816370742","OWS","OWS1","Q036","","Income","INC","$15,000 - $24,999","INC1525","","","","","","","","","55","","","",""
"41856","2016","2016","2016","WY","Wyoming","BRFSS","Obesity / Weight Status","Obesity / Weight Status","Percent of adults aged 18 years and older who have obesity †","","","VALUE","Value","33.0","","","27.4","39.2","626","43.235541343","-108.109830353","OWS","OWS1","Q036","","Income","INC","$15,000 - $24,999","INC1525","","","","","","","","","56","","","",""
"41327","2016","2016","2016","GU","Guam","BRFSS","Obesity / Weight Status","Obesity / Weight Status","Percent of adults aged 18 years and older who have obesity †","","","VALUE","Value","25.3","","","19.0","32.8","263","13.444304","144.793731","OWS","OWS1","Q036","","Income","INC","$15,000 - $24,999","INC1525","","","","","","","","","66","","","",""
"40787","2016","2016","2016","PR","Puerto Rico","BRFSS","Obesity / Weight Status","Obesity / Weight Status","Percent of adults aged 18 years and older who have obesity †","","","VALUE","Value","30.5","","","27.4","33.8","1,426","18.220833","-66.590149","OWS","OWS1","Q036","","Income","INC","$15,000 - $24,999","INC1525","","","","","","","","","72","","","",""
"40257","2016","2016","2016","VI","Virgin Islands","BRFSS","Obesity / Weight Status","Obesity / Weight Status","Percent of adults aged 18 years and older who have obesity †","","","VALUE","Value","34.0","","","25.2","44.0","231","18.335765","-64.896335","OWS","OWS1","Q036","","Income","INC","$15,000 - $24,999","INC1525","","","","","","","","","78","","","",""
"","","","","","","","","","","","","","","","","","","","","","","","","","","","","","","","","","","","","","","","†","Obesity is defined as body mass index (BMI) =30.0; BMI was calculated from self-reported weight and height (weight [kg]/ height [m²). Respondents reporting weight< 50 pounds or =650 pounds; height< 3 feet or =8 feet; or BMI:<12 or =100 were excluded. Pregnant respondents were also excluded.","","Footnote"
"","","","","","","","","","","","","","","","","","","","","","","","","","","","","","","","","","","","","","","","","Behavioral Risk Factor Surveillance System (BRFSS) - http://www.cdc.gov/brfss/","https://www.cdc.gov/brfss/","Data Source"
"","","","","","","","","","","","","","","","","","","","","","","","","","","","","","","","","","","","","","","","","Centers for Disease Control and Prevention. National Center for Chronic Disease Prevention and Health Promotion, Division of Nutrition, Physical Activity, and Obesity. Data, Trend and Maps [online].","/nccdphp/dnpao/data-trends-maps/index.html","Suggested Citation"
"","","","","","","","","","","","","","","","","","","","","","","","","","","","","","","","","","","","","","","","","Breastfeeding","/breastfeeding/index.htm","Related Links"
"","","","","","","","","","","","","","","","","","","","","","","","","","","","","","","","","","","","","","","","","Division of Nutrition, Physical Activity, and Obesity","/nccdphp/dnpao/index.html","Related Links"
"","","","","","","","","","","","","","","","","","","","","","","","","","","","","","","","","","","","","","","","","Physical Activity","/physicalactivity/index.html","Related Links"
"","","","","","","","","","","","","","","","","","","","","","","","","","","","","","","","","","","","","","","","","Chronic Disease Prevention and Health Promotion","/chronicdisease/index.htm","Related Links"
"","","","","","","","","","","","","","","","","","","","","","","","","","","","","","","","","","","","","","","","","Overweight and Obesity","/obesity/index.html","Related Links"
"","","","","","","","","","","","","","","","","","","","","","","","","","","","","","","","","","","","","","","","","State and Local Programs","/nccdphp/dnpao/state-local-programs/index.html","Related Links"
