"ID","YearStart","YearEnd","Description","LocationAbbr","LocationDesc","DataSource","Class","Topic","Question","Response","Data_Value_Unit","DataValueTypeId","Data_Value_Type","Data_Value","Data_Value_Footnote_Symbol","Data_Value_Footnote","Low_Confidence_Limit","High_Confidence_Limit","Sample_Size","GeoLocation_Lat","GeoLocation_Long","ClassId","TopicId","QuestionId","ResponseId","StratficationCategory1","StratificationCategoryId1","Stratification1","StratificationId1","StratificationCategory2","StratificationCategoryId2","Stratification2","StratificationId2","StratificationCategory3","StratificationCategoryId3","Stratification3","StratificationId3","LocationDisplayOrder","FootnoteSymbol","FootnoteText","URL","FootnoteHeading"
"53343","2017","2017","2017","US","National","BRFSS","Obesity / Weight Status","Obesity / Weight Status","Percent of adults aged 18 years and older who have obesity †","","","VALUE","Value","38.7","","","36.2","41.2","7,729","","","OWS","OWS1","Q036","","Race/Ethnicity","RACE","American Indian / Alaska Native","RACENAA","","","","","","","","","0","","","",""
"47367","2017","2017","2017","AL","Alabama","BRFSS","Obesity / Weight Status","Obesity / Weight Status","Percent of adults aged 18 years and older who have obesity †","","","VALUE","Value","46.6","","","31.5","62.3","78","32.840571122","-86.631860762","OWS","OWS1","Q036","","Race/Ethnicity","RACE","American Indian / Alaska Native","RACENAA","","","","","","","","","1","","","",""
"44610","2017","2017","2017","AK","Alaska","BRFSS","Obesity / Weight Status","Obesity / Weight Status","Percent of adults aged 18 years and older who have obesity †","","","VALUE","Value","44.0","","","35.0","53.3","488","64.845079957001","-147.722059036","OWS","OWS1","Q036","","Race/Ethnicity","RACE","American Indian / Alaska Native","RACENAA","","","","","","","","","2","","","",""
"58273","2017","2017","2017","AZ","Arizona","BRFSS","Obesity / Weight Status","Obesity / Weight Status","Percent of adults aged 18 years and older who have obesity †","","","VALUE","Value","41.6","","","36.3","47.1","561","34.86597028","-111.763811277","OWS","OWS1","Q036","","Race/Ethnicity","RACE","American Indian / Alaska Native","RACENAA","","","","","","","","","4","","","",""
"50558","2017","2017","2017","AR","Arkansas","BRFSS","Obesity / Weight Status","Obesity / Weight Status","Percent of adults aged 18 years and older who have obesity †","","","VALUE","Value","50.3","","","28.1","72.3","58","34.748650124","-92.274490743","OWS","OWS1","Q036","","Race/Ethnicity","RACE","American Indian / Alaska Native","RACENAA","","","","","","","","","5","","","",""
"49891","2017","2017","2017","CA","California","BRFSS","Obesity / Weight Status","Obesity / Weight Status","Percent of adults aged 18 years and older who have obesity †","","","VALUE","Value","32.1","","","19.4","48.2","80","37.638640123","-120.999999538","OWS","OWS1","Q036","","Race/Ethnicity","RACE","American Indian / Alaska Native","RACENAA","","","","","","","","","6","","","",""
"54462","2017","2017","2017","CO","Colorado","BRFSS","Obesity / Weight Status","Obesity / Weight Status","Percent of adults aged 18 years and older who have obesity †","","","VALUE","Value","27.6","","","17.3","41.1","73","38.843840757","-106.133610921","OWS","OWS1","Q036","","Race/Ethnicity","RACE","American Indian / Alaska Native","RACENAA","","","","","","","","","8","","","",""
"44669","2017","2017","2017","CT","Connecticut","BRFSS","Obesity / Weight Status","Obesity / Weight Status","Percent of adults aged 18 years and older who have obesity †","","","VALUE","Value","~","~","Data not available because sample size is insufficient.","~","","~","41.56266102","-72.649840952","OWS","OWS1","Q036","","Race/Ethnicity","RACE","American Indian / Alaska Native","RACENAA","","","","","","","","","9","","","",""
"56639","2017","2017","2017","DE","Delaware","BRFSS","Obesity / Weight Status","Obesity / Weight Status","Percent of adults aged 18 years and older who have obesity †","","","VALUE","Value","33.4","","","18.8","51.9","52","39.008830667","-75.577741168","OWS","OWS1","Q036","","Race/Ethnicity","RACE","American Indian / Alaska Native","RACENAA","","","","","","","","","10","","","",""
"45952","2017","2017","2017","DC","District of Columbia","BRFSS","Obesity / Weight Status","Obesity / Weight Status","Percent of adults aged 18 years and older who have obesity †","","","VALUE","Value","~","~","Data not available because sample size is insufficient.","~","","~","38.890371385","-77.031961127","OWS","OWS1","Q036","","Race/Ethnicity","RACE","American Indian / Alaska Native","RACENAA","","","","","","","","","11","","","",""
"54824","2017","2017","2017","FL","Florida","BRFSS","Obesity / Weight Status","Obesity / Weight Status","Percent of adults aged 18 years and older who have obesity †","","","VALUE","Value","46.7","","","29.7","64.5","278","28.932040377","-81.928960539","OWS","OWS1","Q036","","Race/Ethnicity","RACE","American Indian / Alaska Native","RACENAA","","","","","","","","","12","","","",""
"50699","2017","2017","2017","GA","Georgia","BRFSS","Obesity / Weight Status","Obesity / Weight Status","Percent of adults aged 18 years and older who have obesity †","","","VALUE","Value","36.1","","","19.6","56.7","58","32.839681093","-83.627580346","OWS","OWS1","Q036","","Race/Ethnicity","RACE","American Indian / Alaska Native","RACENAA","","","","","","","","","13","","","",""
"57506","2017","2017","2017","HI","Hawaii","BRFSS","Obesity / Weight Status","Obesity / Weight Status","Percent of adults aged 18 years and older who have obesity †","","","VALUE","Value","~","~","Data not available because sample size is insufficient.","~","","~","21.304850435","-157.857749403","OWS","OWS1","Q036","","Race/Ethnicity","RACE","American Indian / Alaska Native","RACENAA","","","","","","","","","15","","","",""
"52512","2017","2017","2017","ID","Idaho","BRFSS","Obesity / Weight Status","Obesity / Weight Status","Percent of adults aged 18 years and older who have obesity †","","","VALUE","Value","~","~","Data not available because sample size is insufficient.","~","","~","43.682630005","-114.363730042","OWS","OWS1","Q036","","Race/Ethnicity","RACE","American Indian / Alaska Native","RACENAA","","","","","","","","","16","","","",""
"52681","2017","2017","2017","IL","Illinois","BRFSS","Obesity / Weight Status","Obesity / Weight Status","Percent of adults aged 18 years and older who have obesity †","","","VALUE","Value","~","~","Data not available because sample size is insufficient.","~","","~","40.485010283","-88.997710178","OWS","OWS1","Q036","","Race/Ethnicity","RACE","American Indian / Alaska Native","RACENAA","","","","","","","","","17","","","",""
"56007","2017","2017","2017","IN","Indiana","BRFSS","Obesity / Weight Status","Obesity / Weight Status","Percent of adults aged 18 years and older who have obesity †","","","VALUE","Value","28.9","","","18.9","41.4","126","39.766910452","-86.149960194","OWS","OWS1","Q036","","Race/Ethnicity","RACE","American Indian / Alaska Native","RACENAA","","","","","","","","","18","","","",""
"58023","2017","2017","2017","IA","Iowa","BRFSS","Obesity / Weight Status","Obesity / Weight Status","Percent of adults aged 18 years and older who have obesity †","","","VALUE","Value","~","~","Data not available because sample size is insufficient.","~","","~","42.469400913","-93.816490556","OWS","OWS1","Q036","","Race/Ethnicity","RACE","American Indian / Alaska Native","RACENAA","","","","","","","","","19","","","",""
"56669","2017","2017","2017","KS","Kansas","BRFSS","Obesity / Weight Status","Obesity / Weight Status","Percent of adults aged 18 years and older who have obesity †","","","VALUE","Value","32.6","","","25.8","40.3","245","38.3477403","-98.200781227","OWS","OWS1","Q036","","Race/Ethnicity","RACE","American Indian / Alaska Native","RACENAA","","","","","","","","","20","","","",""
"53837","2017","2017","2017","KY","Kentucky","BRFSS","Obesity / Weight Status","Obesity / Weight Status","Percent of adults aged 18 years and older who have obesity †","","","VALUE","Value","37.8","","","22.2","56.4","70","37.645970271","-84.774971048","OWS","OWS1","Q036","","Race/Ethnicity","RACE","American Indian / Alaska Native","RACENAA","","","","","","","","","21","","","",""
"58102","2017","2017","2017","LA","Louisiana","BRFSS","Obesity / Weight Status","Obesity / Weight Status","Percent of adults aged 18 years and older who have obesity †","","","VALUE","Value","45.5","","","29.0","63.1","66","31.312660644","-92.445680071","OWS","OWS1","Q036","","Race/Ethnicity","RACE","American Indian / Alaska Native","RACENAA","","","","","","","","","22","","","",""
"47739","2017","2017","2017","ME","Maine","BRFSS","Obesity / Weight Status","Obesity / Weight Status","Percent of adults aged 18 years and older who have obesity †","","","VALUE","Value","29.3","","","17.1","45.4","96","45.254228894001","-68.985031336","OWS","OWS1","Q036","","Race/Ethnicity","RACE","American Indian / Alaska Native","RACENAA","","","","","","","","","23","","","",""
"44606","2017","2017","2017","MD","Maryland","BRFSS","Obesity / Weight Status","Obesity / Weight Status","Percent of adults aged 18 years and older who have obesity †","","","VALUE","Value","27.9","","","14.6","46.7","65","39.290580964","-76.609260111","OWS","OWS1","Q036","","Race/Ethnicity","RACE","American Indian / Alaska Native","RACENAA","","","","","","","","","24","","","",""
"54612","2017","2017","2017","MA","Massachusetts","BRFSS","Obesity / Weight Status","Obesity / Weight Status","Percent of adults aged 18 years and older who have obesity †","","","VALUE","Value","~","~","Data not available because sample size is insufficient.","~","","~","42.27687047","-72.082690675","OWS","OWS1","Q036","","Race/Ethnicity","RACE","American Indian / Alaska Native","RACENAA","","","","","","","","","25","","","",""
"44372","2017","2017","2017","MI","Michigan","BRFSS","Obesity / Weight Status","Obesity / Weight Status","Percent of adults aged 18 years and older who have obesity †","","","VALUE","Value","31.9","","","19.4","47.7","69","44.661319543001","-84.71439027","OWS","OWS1","Q036","","Race/Ethnicity","RACE","American Indian / Alaska Native","RACENAA","","","","","","","","","26","","","",""
"51123","2017","2017","2017","MN","Minnesota","BRFSS","Obesity / Weight Status","Obesity / Weight Status","Percent of adults aged 18 years and older who have obesity †","","","VALUE","Value","39.3","","","29.9","49.6","196","46.355648736","-94.794200503","OWS","OWS1","Q036","","Race/Ethnicity","RACE","American Indian / Alaska Native","RACENAA","","","","","","","","","27","","","",""
"50619","2017","2017","2017","MS","Mississippi","BRFSS","Obesity / Weight Status","Obesity / Weight Status","Percent of adults aged 18 years and older who have obesity †","","","VALUE","Value","41.9","","","24.7","61.3","58","32.745510099","-89.538030825","OWS","OWS1","Q036","","Race/Ethnicity","RACE","American Indian / Alaska Native","RACENAA","","","","","","","","","28","","","",""
"52112","2017","2017","2017","MO","Missouri","BRFSS","Obesity / Weight Status","Obesity / Weight Status","Percent of adults aged 18 years and older who have obesity †","","","VALUE","Value","29.0","","","16.7","45.4","56","38.635790776","-92.566300053","OWS","OWS1","Q036","","Race/Ethnicity","RACE","American Indian / Alaska Native","RACENAA","","","","","","","","","29","","","",""
"54838","2017","2017","2017","MT","Montana","BRFSS","Obesity / Weight Status","Obesity / Weight Status","Percent of adults aged 18 years and older who have obesity †","","","VALUE","Value","43.2","","","36.4","50.3","604","47.066528972","-109.424420645","OWS","OWS1","Q036","","Race/Ethnicity","RACE","American Indian / Alaska Native","RACENAA","","","","","","","","","30","","","",""
"53121","2017","2017","2017","NE","Nebraska","BRFSS","Obesity / Weight Status","Obesity / Weight Status","Percent of adults aged 18 years and older who have obesity †","","","VALUE","Value","33.2","","","24.1","43.8","182","41.641040988001","-99.365720623","OWS","OWS1","Q036","","Race/Ethnicity","RACE","American Indian / Alaska Native","RACENAA","","","","","","","","","31","","","",""
"50600","2017","2017","2017","NV","Nevada","BRFSS","Obesity / Weight Status","Obesity / Weight Status","Percent of adults aged 18 years and older who have obesity †","","","VALUE","Value","50.8","","","33.7","67.7","51","39.49324039","-117.071840564","OWS","OWS1","Q036","","Race/Ethnicity","RACE","American Indian / Alaska Native","RACENAA","","","","","","","","","32","","","",""
"55172","2017","2017","2017","NH","New Hampshire","BRFSS","Obesity / Weight Status","Obesity / Weight Status","Percent of adults aged 18 years and older who have obesity †","","","VALUE","Value","~","~","Data not available because sample size is insufficient.","~","","~","43.655950113","-71.50036092","OWS","OWS1","Q036","","Race/Ethnicity","RACE","American Indian / Alaska Native","RACENAA","","","","","","","","","33","","","",""
"47348","2017","2017","2017","NJ","New Jersey","BRFSS","Obesity / Weight Status","Obesity / Weight Status","Percent of adults aged 18 years and older who have obesity †","","","VALUE","Value","33.3","","","18.6","52.1","54","40.130570048","-74.273691288","OWS","OWS1","Q036","","Race/Ethnicity","RACE","American Indian / Alaska Native","RACENAA","","","","","","","","","34","","","",""
"50106","2017","2017","2017","NM","New Mexico","BRFSS","Obesity / Weight Status","Obesity / Weight Status","Percent of adults aged 18 years and older who have obesity †","","","VALUE","Value","39.1","","","33.3","45.2","653","34.520880952","-106.240580985","OWS","OWS1","Q036","","Race/Ethnicity","RACE","American Indian / Alaska Native","RACENAA","","","","","","","","","35","","","",""
"54218","2017","2017","2017","NY","New York","BRFSS","Obesity / Weight Status","Obesity / Weight Status","Percent of adults aged 18 years and older who have obesity †","","","VALUE","Value","20.3","","","11.3","33.8","83","42.827001032","-75.543970427","OWS","OWS1","Q036","","Race/Ethnicity","RACE","American Indian / Alaska Native","RACENAA","","","","","","","","","36","","","",""
"57960","2017","2017","2017","NC","North Carolina","BRFSS","Obesity / Weight Status","Obesity / Weight Status","Percent of adults aged 18 years and older who have obesity †","","","VALUE","Value","36.0","","","23.6","50.6","143","35.466220975","-79.159250463","OWS","OWS1","Q036","","Race/Ethnicity","RACE","American Indian / Alaska Native","RACENAA","","","","","","","","","37","","","",""
"48335","2017","2017","2017","ND","North Dakota","BRFSS","Obesity / Weight Status","Obesity / Weight Status","Percent of adults aged 18 years and older who have obesity †","","","VALUE","Value","46.4","","","37.9","55.0","226","47.475319779","-100.118421049","OWS","OWS1","Q036","","Race/Ethnicity","RACE","American Indian / Alaska Native","RACENAA","","","","","","","","","38","","","",""
"45317","2017","2017","2017","OH","Ohio","BRFSS","Obesity / Weight Status","Obesity / Weight Status","Percent of adults aged 18 years and older who have obesity †","","","VALUE","Value","28.0","","","15.7","44.7","102","40.060210141","-82.404260056","OWS","OWS1","Q036","","Race/Ethnicity","RACE","American Indian / Alaska Native","RACENAA","","","","","","","","","39","","","",""
"54068","2017","2017","2017","OK","Oklahoma","BRFSS","Obesity / Weight Status","Obesity / Weight Status","Percent of adults aged 18 years and older who have obesity †","","","VALUE","Value","46.3","","","40.1","52.7","373","35.472031356","-97.521070214","OWS","OWS1","Q036","","Race/Ethnicity","RACE","American Indian / Alaska Native","RACENAA","","","","","","","","","40","","","",""
"47723","2017","2017","2017","OR","Oregon","BRFSS","Obesity / Weight Status","Obesity / Weight Status","Percent of adults aged 18 years and older who have obesity †","","","VALUE","Value","43.7","","","30.0","58.4","61","44.567449424","-120.155031326","OWS","OWS1","Q036","","Race/Ethnicity","RACE","American Indian / Alaska Native","RACENAA","","","","","","","","","41","","","",""
"45142","2017","2017","2017","PA","Pennsylvania","BRFSS","Obesity / Weight Status","Obesity / Weight Status","Percent of adults aged 18 years and older who have obesity †","","","VALUE","Value","~","~","Data not available because sample size is insufficient.","~","","~","40.793730152","-77.860700294","OWS","OWS1","Q036","","Race/Ethnicity","RACE","American Indian / Alaska Native","RACENAA","","","","","","","","","42","","","",""
"51254","2017","2017","2017","RI","Rhode Island","BRFSS","Obesity / Weight Status","Obesity / Weight Status","Percent of adults aged 18 years and older who have obesity †","","","VALUE","Value","~","~","Data not available because sample size is insufficient.","~","","~","41.708280193","-71.522470314","OWS","OWS1","Q036","","Race/Ethnicity","RACE","American Indian / Alaska Native","RACENAA","","","","","","","","","44","","","",""
"51982","2017","2017","2017","SC","South Carolina","BRFSS","Obesity / Weight Status","Obesity / Weight Status","Percent of adults aged 18 years and older who have obesity †","","","VALUE","Value","41.2","","","28.3","55.4","80","33.998821303","-81.045371207","OWS","OWS1","Q036","","Race/Ethnicity","RACE","American Indian / Alaska Native","RACENAA","","","","","","","","","45","","","",""
"57167","2017","2017","2017","SD","South Dakota","BRFSS","Obesity / Weight Status","Obesity / Weight Status","Percent of adults aged 18 years and older who have obesity †","","","VALUE","Value","48.7","","","41.4","56.1","1,241","44.353130053","-100.373530637","OWS","OWS1","Q036","","Race/Ethnicity","RACE","American Indian / Alaska Native","RACENAA","","","","","","","","","46","","","",""
"49413","2017","2017","2017","TN","Tennessee","BRFSS","Obesity / Weight Status","Obesity / Weight Status","Percent of adults aged 18 years and older who have obesity †","","","VALUE","Value","26.9","","","14.2","45.0","60","35.68094058","-85.774490914","OWS","OWS1","Q036","","Race/Ethnicity","RACE","American Indian / Alaska Native","RACENAA","","","","","","","","","47","","","",""
"58163","2017","2017","2017","TX","Texas","BRFSS","Obesity / Weight Status","Obesity / Weight Status","Percent of adults aged 18 years and older who have obesity †","","","VALUE","Value","48.2","","","30.9","66.0","110","31.827240407","-99.426770206","OWS","OWS1","Q036","","Race/Ethnicity","RACE","American Indian / Alaska Native","RACENAA","","","","","","","","","48","","","",""
"47405","2017","2017","2017","UT","Utah","BRFSS","Obesity / Weight Status","Obesity / Weight Status","Percent of adults aged 18 years and older who have obesity †","","","VALUE","Value","34.3","","","23.2","47.4","111","39.360700171","-111.587130635","OWS","OWS1","Q036","","Race/Ethnicity","RACE","American Indian / Alaska Native","RACENAA","","","","","","","","","49","","","",""
"56860","2017","2017","2017","VT","Vermont","BRFSS","Obesity / Weight Status","Obesity / Weight Status","Percent of adults aged 18 years and older who have obesity †","","","VALUE","Value","37.0","","","23.5","52.9","66","43.625381239","-72.517640791","OWS","OWS1","Q036","","Race/Ethnicity","RACE","American Indian / Alaska Native","RACENAA","","","","","","","","","50","","","",""
"48021","2017","2017","2017","VA","Virginia","BRFSS","Obesity / Weight Status","Obesity / Weight Status","Percent of adults aged 18 years and older who have obesity †","","","VALUE","Value","25.5","","","15.1","39.8","84","37.542680674","-78.457890463","OWS","OWS1","Q036","","Race/Ethnicity","RACE","American Indian / Alaska Native","RACENAA","","","","","","","","","51","","","",""
"52101","2017","2017","2017","WA","Washington","BRFSS","Obesity / Weight Status","Obesity / Weight Status","Percent of adults aged 18 years and older who have obesity †","","","VALUE","Value","34.9","","","25.9","45.1","167","47.522278629","-120.47001079","OWS","OWS1","Q036","","Race/Ethnicity","RACE","American Indian / Alaska Native","RACENAA","","","","","","","","","53","","","",""
"45994","2017","2017","2017","WV","West Virginia","BRFSS","Obesity / Weight Status","Obesity / Weight Status","Percent of adults aged 18 years and older who have obesity †","","","VALUE","Value","~","~","Data not available because sample size is insufficient.","~","","~","38.665510202","-80.712640135","OWS","OWS1","Q036","","Race/Ethnicity","RACE","American Indian / Alaska Native","RACENAA","","","","","","","","","54","","","",""
"51179","2017","2017","2017","WI","Wisconsin","BRFSS","Obesity / Weight Status","Obesity / Weight Status","Percent of adults aged 18 years and older who have obesity †","","","VALUE","Value","37.2","","","21.7","55.9","128","44.393191174","-89.816370742","OWS","OWS1","Q036","","Race/Ethnicity","RACE","American Indian / Alaska Native","RACENAA","","","","","","","","","55","","","",""
"53511","2017","2017","2017","WY","Wyoming","BRFSS","Obesity / Weight Status","Obesity / Weight Status","Percent of adults aged 18 years and older who have obesity †","","","VALUE","Value","44.4","","","28.5","61.6","51","43.235541343","-108.109830353","OWS","OWS1","Q036","","Race/Ethnicity","RACE","American Indian / Alaska Native","RACENAA","","","","","","","","","56","","","",""
"53137","2017","2017","2017","GU","Guam","BRFSS","Obesity / Weight Status","Obesity / Weight Status","Percent of adults aged 18 years and older who have obesity †","","","VALUE","Value","~","~","Data not available because sample size is insufficient.","~","","~","13.444304","144.793731","OWS","OWS1","Q036","","Race/Ethnicity","RACE","American Indian / Alaska Native","RACENAA","","","","","","","","","66","","","",""
"58532","2017","2017","2017","PR","Puerto Rico","BRFSS","Obesity / Weight Status","Obesity / Weight Status","Percent of adults aged 18 years and older who have obesity †","","","VALUE","Value","~","~","Data not available because sample size is insufficient.","~","","~","18.220833","-66.590149","OWS","OWS1","Q036","","Race/Ethnicity","RACE","American Indian / Alaska Native","RACENAA","","","","","","","","","72","","","",""
"57996","2017","2017","2017","VI","Virgin Islands","BRFSS","Obesity / Weight Status","Obesity / Weight Status","Percent of adults aged 18 years and older who have obesity †","","","VALUE","Value","~","~","Data not available because sample size is insufficient.","~","","~","18.335765","-64.896335","OWS","OWS1","Q036","","Race/Ethnicity","RACE","American Indian / Alaska Native","RACENAA","","","","","","","","","78","","","",""
"","","","","","","","","","","","","","","","","","","","","","","","","","","","","","","","","","","","","","","","~","Data not available because sample size is insufficient.","","Footnote"
"","","","","","","","","","","","","","","","","","","","","","","","","","","","","","","","","","","","","","","","†","Obesity is defined as body mass index (BMI) =30.0; BMI was calculated from self-reported weight and height (weight [kg]/ height [m²). Respondents reporting weight< 50 pounds or =650 pounds; height< 3 feet or =8 feet; or BMI:<12 or =100 were excluded. Pregnant respondents were also excluded.","","Footnote"
"","","","","","","","","","","","","","","","","","","","","","","","","","","","","","","","","","","","","","","","","Behavioral Risk Factor Surveillance System (BRFSS) - http://www.cdc.gov/brfss/","https://www.cdc.gov/brfss/","Data Source"
"","","","","","","","","","","","","","","","","","","","","","","","","","","","","","","","","","","","","","","","","Centers for Disease Control and Prevention. National Center for Chronic Disease Prevention and Health Promotion, Division of Nutrition, Physical Activity, and Obesity. Data, Trend and Maps [online].","/nccdphp/dnpao/data-trends-maps/index.html","Suggested Citation"
"","","","","","","","","","","","","","","","","","","","","","","","","","","","","","","","","","","","","","","","","Breastfeeding","/breastfeeding/index.htm","Related Links"
"","","","","","","","","","","","","","","","","","","","","","","","","","","","","","","","","","","","","","","","","Division of Nutrition, Physical Activity, and Obesity","/nccdphp/dnpao/index.html","Related Links"
"","","","","","","","","","","","","","","","","","","","","","","","","","","","","","","","","","","","","","","","","Physical Activity","/physicalactivity/index.html","Related Links"
"","","","","","","","","","","","","","","","","","","","","","","","","","","","","","","","","","","","","","","","","Chronic Disease Prevention and Health Promotion","/chronicdisease/index.htm","Related Links"
"","","","","","","","","","","","","","","","","","","","","","","","","","","","","","","","","","","","","","","","","Overweight and Obesity","/obesity/index.html","Related Links"
"","","","","","","","","","","","","","","","","","","","","","","","","","","","","","","","","","","","","","","","","State and Local Programs","/nccdphp/dnpao/state-local-programs/index.html","Related Links"
