"ID","YearStart","YearEnd","Description","LocationAbbr","LocationDesc","DataSource","Class","Topic","Question","Response","Data_Value_Unit","DataValueTypeId","Data_Value_Type","Data_Value","Data_Value_Footnote_Symbol","Data_Value_Footnote","Low_Confidence_Limit","High_Confidence_Limit","Sample_Size","GeoLocation_Lat","GeoLocation_Long","ClassId","TopicId","QuestionId","ResponseId","StratficationCategory1","StratificationCategoryId1","Stratification1","StratificationId1","StratificationCategory2","StratificationCategoryId2","Stratification2","StratificationId2","StratificationCategory3","StratificationCategoryId3","Stratification3","StratificationId3","LocationDisplayOrder","FootnoteSymbol","FootnoteText","URL","FootnoteHeading"
"58283","2017","2017","2017","US","National","BRFSS","Obesity / Weight Status","Obesity / Weight Status","Percent of adults aged 18 years and older who have obesity †","","","VALUE","Value","29.3","","","29.0","29.6","313,952","","","OWS","OWS1","Q036","","Race/Ethnicity","RACE","Non-Hispanic White","RACEWHT","","","","","","","","","0","","","",""
"46609","2017","2017","2017","AL","Alabama","BRFSS","Obesity / Weight Status","Obesity / Weight Status","Percent of adults aged 18 years and older who have obesity †","","","VALUE","Value","33.6","","","31.7","35.5","4,260","32.840571122","-86.631860762","OWS","OWS1","Q036","","Race/Ethnicity","RACE","Non-Hispanic White","RACEWHT","","","","","","","","","1","","","",""
"45296","2017","2017","2017","AK","Alaska","BRFSS","Obesity / Weight Status","Obesity / Weight Status","Percent of adults aged 18 years and older who have obesity †","","","VALUE","Value","32.6","","","29.6","35.7","2,160","64.845079957001","-147.722059036","OWS","OWS1","Q036","","Race/Ethnicity","RACE","Non-Hispanic White","RACEWHT","","","","","","","","","2","","","",""
"46002","2017","2017","2017","AZ","Arizona","BRFSS","Obesity / Weight Status","Obesity / Weight Status","Percent of adults aged 18 years and older who have obesity †","","","VALUE","Value","26.9","","","25.8","28.0","10,211","34.86597028","-111.763811277","OWS","OWS1","Q036","","Race/Ethnicity","RACE","Non-Hispanic White","RACEWHT","","","","","","","","","4","","","",""
"50583","2017","2017","2017","AR","Arkansas","BRFSS","Obesity / Weight Status","Obesity / Weight Status","Percent of adults aged 18 years and older who have obesity †","","","VALUE","Value","34.0","","","31.5","36.6","3,808","34.748650124","-92.274490743","OWS","OWS1","Q036","","Race/Ethnicity","RACE","Non-Hispanic White","RACEWHT","","","","","","","","","5","","","",""
"45253","2017","2017","2017","CA","California","BRFSS","Obesity / Weight Status","Obesity / Weight Status","Percent of adults aged 18 years and older who have obesity †","","","VALUE","Value","23.8","","","22.1","25.6","4,463","37.638640123","-120.999999538","OWS","OWS1","Q036","","Race/Ethnicity","RACE","Non-Hispanic White","RACEWHT","","","","","","","","","6","","","",""
"58269","2017","2017","2017","CO","Colorado","BRFSS","Obesity / Weight Status","Obesity / Weight Status","Percent of adults aged 18 years and older who have obesity †","","","VALUE","Value","21.4","","","20.2","22.6","7,005","38.843840757","-106.133610921","OWS","OWS1","Q036","","Race/Ethnicity","RACE","Non-Hispanic White","RACEWHT","","","","","","","","","8","","","",""
"48443","2017","2017","2017","CT","Connecticut","BRFSS","Obesity / Weight Status","Obesity / Weight Status","Percent of adults aged 18 years and older who have obesity †","","","VALUE","Value","25.6","","","24.2","27.0","7,538","41.56266102","-72.649840952","OWS","OWS1","Q036","","Race/Ethnicity","RACE","Non-Hispanic White","RACEWHT","","","","","","","","","9","","","",""
"54110","2017","2017","2017","DE","Delaware","BRFSS","Obesity / Weight Status","Obesity / Weight Status","Percent of adults aged 18 years and older who have obesity †","","","VALUE","Value","30.4","","","28.1","32.9","2,534","39.008830667","-75.577741168","OWS","OWS1","Q036","","Race/Ethnicity","RACE","Non-Hispanic White","RACEWHT","","","","","","","","","10","","","",""
"58100","2017","2017","2017","DC","District of Columbia","BRFSS","Obesity / Weight Status","Obesity / Weight Status","Percent of adults aged 18 years and older who have obesity †","","","VALUE","Value","12.2","","","10.0","14.8","1,283","38.890371385","-77.031961127","OWS","OWS1","Q036","","Race/Ethnicity","RACE","Non-Hispanic White","RACEWHT","","","","","","","","","11","","","",""
"51134","2017","2017","2017","FL","Florida","BRFSS","Obesity / Weight Status","Obesity / Weight Status","Percent of adults aged 18 years and older who have obesity †","","","VALUE","Value","25.9","","","24.5","27.4","14,541","28.932040377","-81.928960539","OWS","OWS1","Q036","","Race/Ethnicity","RACE","Non-Hispanic White","RACEWHT","","","","","","","","","12","","","",""
"49131","2017","2017","2017","GA","Georgia","BRFSS","Obesity / Weight Status","Obesity / Weight Status","Percent of adults aged 18 years and older who have obesity †","","","VALUE","Value","30.9","","","28.8","33.0","3,182","32.839681093","-83.627580346","OWS","OWS1","Q036","","Race/Ethnicity","RACE","Non-Hispanic White","RACEWHT","","","","","","","","","13","","","",""
"44883","2017","2017","2017","HI","Hawaii","BRFSS","Obesity / Weight Status","Obesity / Weight Status","Percent of adults aged 18 years and older who have obesity †","","","VALUE","Value","17.3","","","15.1","19.7","2,318","21.304850435","-157.857749403","OWS","OWS1","Q036","","Race/Ethnicity","RACE","Non-Hispanic White","RACEWHT","","","","","","","","","15","","","",""
"53230","2017","2017","2017","ID","Idaho","BRFSS","Obesity / Weight Status","Obesity / Weight Status","Percent of adults aged 18 years and older who have obesity †","","","VALUE","Value","28.1","","","26.3","30.0","4,137","43.682630005","-114.363730042","OWS","OWS1","Q036","","Race/Ethnicity","RACE","Non-Hispanic White","RACEWHT","","","","","","","","","16","","","",""
"45269","2017","2017","2017","IL","Illinois","BRFSS","Obesity / Weight Status","Obesity / Weight Status","Percent of adults aged 18 years and older who have obesity †","","","VALUE","Value","31.0","","","29.1","32.9","3,695","40.485010283","-88.997710178","OWS","OWS1","Q036","","Race/Ethnicity","RACE","Non-Hispanic White","RACEWHT","","","","","","","","","17","","","",""
"48475","2017","2017","2017","IN","Indiana","BRFSS","Obesity / Weight Status","Obesity / Weight Status","Percent of adults aged 18 years and older who have obesity †","","","VALUE","Value","33.3","","","32.1","34.5","10,930","39.766910452","-86.149960194","OWS","OWS1","Q036","","Race/Ethnicity","RACE","Non-Hispanic White","RACEWHT","","","","","","","","","18","","","",""
"53594","2017","2017","2017","IA","Iowa","BRFSS","Obesity / Weight Status","Obesity / Weight Status","Percent of adults aged 18 years and older who have obesity †","","","VALUE","Value","36.6","","","35.2","37.9","6,452","42.469400913","-93.816490556","OWS","OWS1","Q036","","Race/Ethnicity","RACE","Non-Hispanic White","RACEWHT","","","","","","","","","19","","","",""
"46363","2017","2017","2017","KS","Kansas","BRFSS","Obesity / Weight Status","Obesity / Weight Status","Percent of adults aged 18 years and older who have obesity †","","","VALUE","Value","32.1","","","31.2","32.9","17,060","38.3477403","-98.200781227","OWS","OWS1","Q036","","Race/Ethnicity","RACE","Non-Hispanic White","RACEWHT","","","","","","","","","20","","","",""
"50185","2017","2017","2017","KY","Kentucky","BRFSS","Obesity / Weight Status","Obesity / Weight Status","Percent of adults aged 18 years and older who have obesity †","","","VALUE","Value","34.5","","","32.8","36.3","6,661","37.645970271","-84.774971048","OWS","OWS1","Q036","","Race/Ethnicity","RACE","Non-Hispanic White","RACEWHT","","","","","","","","","21","","","",""
"56081","2017","2017","2017","LA","Louisiana","BRFSS","Obesity / Weight Status","Obesity / Weight Status","Percent of adults aged 18 years and older who have obesity †","","","VALUE","Value","33.5","","","31.4","35.6","2,982","31.312660644","-92.445680071","OWS","OWS1","Q036","","Race/Ethnicity","RACE","Non-Hispanic White","RACEWHT","","","","","","","","","22","","","",""
"48273","2017","2017","2017","ME","Maine","BRFSS","Obesity / Weight Status","Obesity / Weight Status","Percent of adults aged 18 years and older who have obesity †","","","VALUE","Value","29.2","","","27.8","30.7","8,783","45.254228894001","-68.985031336","OWS","OWS1","Q036","","Race/Ethnicity","RACE","Non-Hispanic White","RACEWHT","","","","","","","","","23","","","",""
"50931","2017","2017","2017","MD","Maryland","BRFSS","Obesity / Weight Status","Obesity / Weight Status","Percent of adults aged 18 years and older who have obesity †","","","VALUE","Value","28.7","","","27.3","30.2","8,863","39.290580964","-76.609260111","OWS","OWS1","Q036","","Race/Ethnicity","RACE","Non-Hispanic White","RACEWHT","","","","","","","","","24","","","",""
"51415","2017","2017","2017","MA","Massachusetts","BRFSS","Obesity / Weight Status","Obesity / Weight Status","Percent of adults aged 18 years and older who have obesity †","","","VALUE","Value","25.9","","","23.9","28.0","4,975","42.27687047","-72.082690675","OWS","OWS1","Q036","","Race/Ethnicity","RACE","Non-Hispanic White","RACEWHT","","","","","","","","","25","","","",""
"45897","2017","2017","2017","MI","Michigan","BRFSS","Obesity / Weight Status","Obesity / Weight Status","Percent of adults aged 18 years and older who have obesity †","","","VALUE","Value","30.9","","","29.7","32.2","8,186","44.661319543001","-84.71439027","OWS","OWS1","Q036","","Race/Ethnicity","RACE","Non-Hispanic White","RACEWHT","","","","","","","","","26","","","",""
"46132","2017","2017","2017","MN","Minnesota","BRFSS","Obesity / Weight Status","Obesity / Weight Status","Percent of adults aged 18 years and older who have obesity †","","","VALUE","Value","28.4","","","27.4","29.3","13,694","46.355648736","-94.794200503","OWS","OWS1","Q036","","Race/Ethnicity","RACE","Non-Hispanic White","RACEWHT","","","","","","","","","27","","","",""
"48700","2017","2017","2017","MS","Mississippi","BRFSS","Obesity / Weight Status","Obesity / Weight Status","Percent of adults aged 18 years and older who have obesity †","","","VALUE","Value","33.0","","","30.7","35.4","3,061","32.745510099","-89.538030825","OWS","OWS1","Q036","","Race/Ethnicity","RACE","Non-Hispanic White","RACEWHT","","","","","","","","","28","","","",""
"57523","2017","2017","2017","MO","Missouri","BRFSS","Obesity / Weight Status","Obesity / Weight Status","Percent of adults aged 18 years and older who have obesity †","","","VALUE","Value","32.0","","","30.4","33.7","5,844","38.635790776","-92.566300053","OWS","OWS1","Q036","","Race/Ethnicity","RACE","Non-Hispanic White","RACEWHT","","","","","","","","","29","","","",""
"48065","2017","2017","2017","MT","Montana","BRFSS","Obesity / Weight Status","Obesity / Weight Status","Percent of adults aged 18 years and older who have obesity †","","","VALUE","Value","24.2","","","22.6","25.8","4,549","47.066528972","-109.424420645","OWS","OWS1","Q036","","Race/Ethnicity","RACE","Non-Hispanic White","RACEWHT","","","","","","","","","30","","","",""
"57057","2017","2017","2017","NE","Nebraska","BRFSS","Obesity / Weight Status","Obesity / Weight Status","Percent of adults aged 18 years and older who have obesity †","","","VALUE","Value","32.2","","","31.0","33.5","12,762","41.641040988001","-99.365720623","OWS","OWS1","Q036","","Race/Ethnicity","RACE","Non-Hispanic White","RACEWHT","","","","","","","","","31","","","",""
"57817","2017","2017","2017","NV","Nevada","BRFSS","Obesity / Weight Status","Obesity / Weight Status","Percent of adults aged 18 years and older who have obesity †","","","VALUE","Value","25.1","","","22.6","27.8","2,447","39.49324039","-117.071840564","OWS","OWS1","Q036","","Race/Ethnicity","RACE","Non-Hispanic White","RACEWHT","","","","","","","","","32","","","",""
"46587","2017","2017","2017","NH","New Hampshire","BRFSS","Obesity / Weight Status","Obesity / Weight Status","Percent of adults aged 18 years and older who have obesity †","","","VALUE","Value","28.3","","","26.5","30.3","4,854","43.655950113","-71.50036092","OWS","OWS1","Q036","","Race/Ethnicity","RACE","Non-Hispanic White","RACEWHT","","","","","","","","","33","","","",""
"55095","2017","2017","2017","NJ","New Jersey","BRFSS","Obesity / Weight Status","Obesity / Weight Status","Percent of adults aged 18 years and older who have obesity †","","","VALUE","Value","26.8","","","25.0","28.5","7,309","40.130570048","-74.273691288","OWS","OWS1","Q036","","Race/Ethnicity","RACE","Non-Hispanic White","RACEWHT","","","","","","","","","34","","","",""
"56928","2017","2017","2017","NM","New Mexico","BRFSS","Obesity / Weight Status","Obesity / Weight Status","Percent of adults aged 18 years and older who have obesity †","","","VALUE","Value","24.6","","","22.6","26.9","3,172","34.520880952","-106.240580985","OWS","OWS1","Q036","","Race/Ethnicity","RACE","Non-Hispanic White","RACEWHT","","","","","","","","","35","","","",""
"55269","2017","2017","2017","NY","New York","BRFSS","Obesity / Weight Status","Obesity / Weight Status","Percent of adults aged 18 years and older who have obesity †","","","VALUE","Value","25.3","","","23.9","26.7","7,505","42.827001032","-75.543970427","OWS","OWS1","Q036","","Race/Ethnicity","RACE","Non-Hispanic White","RACEWHT","","","","","","","","","36","","","",""
"57862","2017","2017","2017","NC","North Carolina","BRFSS","Obesity / Weight Status","Obesity / Weight Status","Percent of adults aged 18 years and older who have obesity †","","","VALUE","Value","30.3","","","28.2","32.5","2,993","35.466220975","-79.159250463","OWS","OWS1","Q036","","Race/Ethnicity","RACE","Non-Hispanic White","RACEWHT","","","","","","","","","37","","","",""
"49169","2017","2017","2017","ND","North Dakota","BRFSS","Obesity / Weight Status","Obesity / Weight Status","Percent of adults aged 18 years and older who have obesity †","","","VALUE","Value","32.8","","","31.2","34.4","6,011","47.475319779","-100.118421049","OWS","OWS1","Q036","","Race/Ethnicity","RACE","Non-Hispanic White","RACEWHT","","","","","","","","","38","","","",""
"56411","2017","2017","2017","OH","Ohio","BRFSS","Obesity / Weight Status","Obesity / Weight Status","Percent of adults aged 18 years and older who have obesity †","","","VALUE","Value","33.1","","","31.7","34.5","9,772","40.060210141","-82.404260056","OWS","OWS1","Q036","","Race/Ethnicity","RACE","Non-Hispanic White","RACEWHT","","","","","","","","","39","","","",""
"47253","2017","2017","2017","OK","Oklahoma","BRFSS","Obesity / Weight Status","Obesity / Weight Status","Percent of adults aged 18 years and older who have obesity †","","","VALUE","Value","36.3","","","34.5","38.1","4,698","35.472031356","-97.521070214","OWS","OWS1","Q036","","Race/Ethnicity","RACE","Non-Hispanic White","RACEWHT","","","","","","","","","40","","","",""
"54885","2017","2017","2017","OR","Oregon","BRFSS","Obesity / Weight Status","Obesity / Weight Status","Percent of adults aged 18 years and older who have obesity †","","","VALUE","Value","29.2","","","27.6","30.9","4,045","44.567449424","-120.155031326","OWS","OWS1","Q036","","Race/Ethnicity","RACE","Non-Hispanic White","RACEWHT","","","","","","","","","41","","","",""
"46380","2017","2017","2017","PA","Pennsylvania","BRFSS","Obesity / Weight Status","Obesity / Weight Status","Percent of adults aged 18 years and older who have obesity †","","","VALUE","Value","31.5","","","29.8","33.3","4,986","40.793730152","-77.860700294","OWS","OWS1","Q036","","Race/Ethnicity","RACE","Non-Hispanic White","RACEWHT","","","","","","","","","42","","","",""
"50352","2017","2017","2017","RI","Rhode Island","BRFSS","Obesity / Weight Status","Obesity / Weight Status","Percent of adults aged 18 years and older who have obesity †","","","VALUE","Value","29.7","","","27.7","31.8","4,205","41.708280193","-71.522470314","OWS","OWS1","Q036","","Race/Ethnicity","RACE","Non-Hispanic White","RACEWHT","","","","","","","","","44","","","",""
"50526","2017","2017","2017","SC","South Carolina","BRFSS","Obesity / Weight Status","Obesity / Weight Status","Percent of adults aged 18 years and older who have obesity †","","","VALUE","Value","31.0","","","29.4","32.5","6,874","33.998821303","-81.045371207","OWS","OWS1","Q036","","Race/Ethnicity","RACE","Non-Hispanic White","RACEWHT","","","","","","","","","45","","","",""
"46594","2017","2017","2017","SD","South Dakota","BRFSS","Obesity / Weight Status","Obesity / Weight Status","Percent of adults aged 18 years and older who have obesity †","","","VALUE","Value","30.6","","","28.4","32.8","4,993","44.353130053","-100.373530637","OWS","OWS1","Q036","","Race/Ethnicity","RACE","Non-Hispanic White","RACEWHT","","","","","","","","","46","","","",""
"50556","2017","2017","2017","TN","Tennessee","BRFSS","Obesity / Weight Status","Obesity / Weight Status","Percent of adults aged 18 years and older who have obesity †","","","VALUE","Value","31.0","","","29.2","32.9","4,352","35.68094058","-85.774490914","OWS","OWS1","Q036","","Race/Ethnicity","RACE","Non-Hispanic White","RACEWHT","","","","","","","","","47","","","",""
"50278","2017","2017","2017","TX","Texas","BRFSS","Obesity / Weight Status","Obesity / Weight Status","Percent of adults aged 18 years and older who have obesity †","","","VALUE","Value","30.4","","","28.1","32.9","6,776","31.827240407","-99.426770206","OWS","OWS1","Q036","","Race/Ethnicity","RACE","Non-Hispanic White","RACEWHT","","","","","","","","","48","","","",""
"44421","2017","2017","2017","UT","Utah","BRFSS","Obesity / Weight Status","Obesity / Weight Status","Percent of adults aged 18 years and older who have obesity †","","","VALUE","Value","25.0","","","23.8","26.2","8,075","39.360700171","-111.587130635","OWS","OWS1","Q036","","Race/Ethnicity","RACE","Non-Hispanic White","RACEWHT","","","","","","","","","49","","","",""
"55316","2017","2017","2017","VT","Vermont","BRFSS","Obesity / Weight Status","Obesity / Weight Status","Percent of adults aged 18 years and older who have obesity †","","","VALUE","Value","27.7","","","26.1","29.4","5,543","43.625381239","-72.517640791","OWS","OWS1","Q036","","Race/Ethnicity","RACE","Non-Hispanic White","RACEWHT","","","","","","","","","50","","","",""
"49789","2017","2017","2017","VA","Virginia","BRFSS","Obesity / Weight Status","Obesity / Weight Status","Percent of adults aged 18 years and older who have obesity †","","","VALUE","Value","28.4","","","26.9","29.9","6,403","37.542680674","-78.457890463","OWS","OWS1","Q036","","Race/Ethnicity","RACE","Non-Hispanic White","RACEWHT","","","","","","","","","51","","","",""
"47565","2017","2017","2017","WA","Washington","BRFSS","Obesity / Weight Status","Obesity / Weight Status","Percent of adults aged 18 years and older who have obesity †","","","VALUE","Value","28.5","","","27.4","29.7","9,852","47.522278629","-120.47001079","OWS","OWS1","Q036","","Race/Ethnicity","RACE","Non-Hispanic White","RACEWHT","","","","","","","","","53","","","",""
"47169","2017","2017","2017","WV","West Virginia","BRFSS","Obesity / Weight Status","Obesity / Weight Status","Percent of adults aged 18 years and older who have obesity †","","","VALUE","Value","38.1","","","36.4","39.8","4,782","38.665510202","-80.712640135","OWS","OWS1","Q036","","Race/Ethnicity","RACE","Non-Hispanic White","RACEWHT","","","","","","","","","54","","","",""
"54486","2017","2017","2017","WI","Wisconsin","BRFSS","Obesity / Weight Status","Obesity / Weight Status","Percent of adults aged 18 years and older who have obesity †","","","VALUE","Value","31.3","","","29.6","33.1","4,654","44.393191174","-89.816370742","OWS","OWS1","Q036","","Race/Ethnicity","RACE","Non-Hispanic White","RACEWHT","","","","","","","","","55","","","",""
"54666","2017","2017","2017","WY","Wyoming","BRFSS","Obesity / Weight Status","Obesity / Weight Status","Percent of adults aged 18 years and older who have obesity †","","","VALUE","Value","28.6","","","26.9","30.5","3,714","43.235541343","-108.109830353","OWS","OWS1","Q036","","Race/Ethnicity","RACE","Non-Hispanic White","RACEWHT","","","","","","","","","56","","","",""
"47849","2017","2017","2017","GU","Guam","BRFSS","Obesity / Weight Status","Obesity / Weight Status","Percent of adults aged 18 years and older who have obesity †","","","VALUE","Value","31.1","","","22.7","41.0","150","13.444304","144.793731","OWS","OWS1","Q036","","Race/Ethnicity","RACE","Non-Hispanic White","RACEWHT","","","","","","","","","66","","","",""
"46840","2017","2017","2017","PR","Puerto Rico","BRFSS","Obesity / Weight Status","Obesity / Weight Status","Percent of adults aged 18 years and older who have obesity †","","","VALUE","Value","~","~","Data not available because sample size is insufficient.","~","","~","18.220833","-66.590149","OWS","OWS1","Q036","","Race/Ethnicity","RACE","Non-Hispanic White","RACEWHT","","","","","","","","","72","","","",""
"57782","2017","2017","2017","VI","Virgin Islands","BRFSS","Obesity / Weight Status","Obesity / Weight Status","Percent of adults aged 18 years and older who have obesity †","","","VALUE","Value","~","~","Data not available because sample size is insufficient.","~","","~","18.335765","-64.896335","OWS","OWS1","Q036","","Race/Ethnicity","RACE","Non-Hispanic White","RACEWHT","","","","","","","","","78","","","",""
"","","","","","","","","","","","","","","","","","","","","","","","","","","","","","","","","","","","","","","","~","Data not available because sample size is insufficient.","","Footnote"
"","","","","","","","","","","","","","","","","","","","","","","","","","","","","","","","","","","","","","","","†","Obesity is defined as body mass index (BMI) =30.0; BMI was calculated from self-reported weight and height (weight [kg]/ height [m²). Respondents reporting weight< 50 pounds or =650 pounds; height< 3 feet or =8 feet; or BMI:<12 or =100 were excluded. Pregnant respondents were also excluded.","","Footnote"
"","","","","","","","","","","","","","","","","","","","","","","","","","","","","","","","","","","","","","","","","Behavioral Risk Factor Surveillance System (BRFSS) - http://www.cdc.gov/brfss/","https://www.cdc.gov/brfss/","Data Source"
"","","","","","","","","","","","","","","","","","","","","","","","","","","","","","","","","","","","","","","","","Centers for Disease Control and Prevention. National Center for Chronic Disease Prevention and Health Promotion, Division of Nutrition, Physical Activity, and Obesity. Data, Trend and Maps [online].","/nccdphp/dnpao/data-trends-maps/index.html","Suggested Citation"
"","","","","","","","","","","","","","","","","","","","","","","","","","","","","","","","","","","","","","","","","Breastfeeding","/breastfeeding/index.htm","Related Links"
"","","","","","","","","","","","","","","","","","","","","","","","","","","","","","","","","","","","","","","","","Division of Nutrition, Physical Activity, and Obesity","/nccdphp/dnpao/index.html","Related Links"
"","","","","","","","","","","","","","","","","","","","","","","","","","","","","","","","","","","","","","","","","Physical Activity","/physicalactivity/index.html","Related Links"
"","","","","","","","","","","","","","","","","","","","","","","","","","","","","","","","","","","","","","","","","Chronic Disease Prevention and Health Promotion","/chronicdisease/index.htm","Related Links"
"","","","","","","","","","","","","","","","","","","","","","","","","","","","","","","","","","","","","","","","","Overweight and Obesity","/obesity/index.html","Related Links"
"","","","","","","","","","","","","","","","","","","","","","","","","","","","","","","","","","","","","","","","","State and Local Programs","/nccdphp/dnpao/state-local-programs/index.html","Related Links"
