"ID","YearStart","YearEnd","Description","LocationAbbr","LocationDesc","DataSource","Class","Topic","Question","Response","Data_Value_Unit","DataValueTypeId","Data_Value_Type","Data_Value","Data_Value_Footnote_Symbol","Data_Value_Footnote","Low_Confidence_Limit","High_Confidence_Limit","Sample_Size","GeoLocation_Lat","GeoLocation_Long","ClassId","TopicId","QuestionId","ResponseId","StratficationCategory1","StratificationCategoryId1","Stratification1","StratificationId1","StratificationCategory2","StratificationCategoryId2","Stratification2","StratificationId2","StratificationCategory3","StratificationCategoryId3","Stratification3","StratificationId3","LocationDisplayOrder","FootnoteSymbol","FootnoteText","URL","FootnoteHeading"
"61110","2018","2018","2018","US","National","BRFSS","Obesity / Weight Status","Obesity / Weight Status","Percent of adults aged 18 years and older who have obesity †","","","VALUE","Value","33.7","","","32.8","34.5","55,168","","","OWS","OWS1","Q036","","Income","INC","$50,000 - $74,999","INC5075","","","","","","","","","0","","","",""
"61190","2018","2018","2018","AL","Alabama","BRFSS","Obesity / Weight Status","Obesity / Weight Status","Percent of adults aged 18 years and older who have obesity †","","","VALUE","Value","38.6","","","33.9","43.6","758","32.84057112200048","-86.63186076199969","OWS","OWS1","Q036","","Income","INC","$50,000 - $74,999","INC5075","","","","","","","","","1","","","",""
"61766","2018","2018","2018","AK","Alaska","BRFSS","Obesity / Weight Status","Obesity / Weight Status","Percent of adults aged 18 years and older who have obesity †","","","VALUE","Value","25.1","","","18.8","32.8","362","64.84507995700051","-147.72205903599973","OWS","OWS1","Q036","","Income","INC","$50,000 - $74,999","INC5075","","","","","","","","","2","","","",""
"61793","2018","2018","2018","AZ","Arizona","BRFSS","Obesity / Weight Status","Obesity / Weight Status","Percent of adults aged 18 years and older who have obesity †","","","VALUE","Value","29.6","","","25.3","34.3","1,070","34.865970280000454","-111.76381127699972","OWS","OWS1","Q036","","Income","INC","$50,000 - $74,999","INC5075","","","","","","","","","4","","","",""
"61820","2018","2018","2018","AR","Arkansas","BRFSS","Obesity / Weight Status","Obesity / Weight Status","Percent of adults aged 18 years and older who have obesity †","","","VALUE","Value","39.7","","","34.2","45.4","624","34.74865012400045","-92.27449074299966","OWS","OWS1","Q036","","Income","INC","$50,000 - $74,999","INC5075","","","","","","","","","5","","","",""
"61847","2018","2018","2018","CA","California","BRFSS","Obesity / Weight Status","Obesity / Weight Status","Percent of adults aged 18 years and older who have obesity †","","","VALUE","Value","29.3","","","26.1","32.7","1,294","37.63864012300047","-120.99999953799971","OWS","OWS1","Q036","","Income","INC","$50,000 - $74,999","INC5075","","","","","","","","","6","","","",""
"61594","2018","2018","2018","CO","Colorado","BRFSS","Obesity / Weight Status","Obesity / Weight Status","Percent of adults aged 18 years and older who have obesity †","","","VALUE","Value","22.9","","","20.1","26.0","1,149","38.843840757000464","-106.13361092099967","OWS","OWS1","Q036","","Income","INC","$50,000 - $74,999","INC5075","","","","","","","","","8","","","",""
"61621","2018","2018","2018","CT","Connecticut","BRFSS","Obesity / Weight Status","Obesity / Weight Status","Percent of adults aged 18 years and older who have obesity †","","","VALUE","Value","29.8","","","26.4","33.4","1,251","41.56266102000046","-72.64984095199964","OWS","OWS1","Q036","","Income","INC","$50,000 - $74,999","INC5075","","","","","","","","","9","","","",""
"61648","2018","2018","2018","DE","Delaware","BRFSS","Obesity / Weight Status","Obesity / Weight Status","Percent of adults aged 18 years and older who have obesity †","","","VALUE","Value","33.3","","","28.5","38.5","621","39.008830667000495","-75.57774116799965","OWS","OWS1","Q036","","Income","INC","$50,000 - $74,999","INC5075","","","","","","","","","10","","","",""
"61859","2018","2018","2018","DC","District of Columbia","BRFSS","Obesity / Weight Status","Obesity / Weight Status","Percent of adults aged 18 years and older who have obesity †","","","VALUE","Value","27.1","","","21.3","33.6","399","38.89037138500049","-77.03196112699965","OWS","OWS1","Q036","","Income","INC","$50,000 - $74,999","INC5075","","","","","","","","","11","","","",""
"61886","2018","2018","2018","FL","Florida","BRFSS","Obesity / Weight Status","Obesity / Weight Status","Percent of adults aged 18 years and older who have obesity †","","","VALUE","Value","34.2","","","30.2","38.4","1,752","28.932040377000476","-81.92896053899966","OWS","OWS1","Q036","","Income","INC","$50,000 - $74,999","INC5075","","","","","","","","","12","","","",""
"61913","2018","2018","2018","GA","Georgia","BRFSS","Obesity / Weight Status","Obesity / Weight Status","Percent of adults aged 18 years and older who have obesity †","","","VALUE","Value","34.7","","","31.0","38.5","1,021","32.83968109300048","-83.62758034599966","OWS","OWS1","Q036","","Income","INC","$50,000 - $74,999","INC5075","","","","","","","","","13","","","",""
"61940","2018","2018","2018","HI","Hawaii","BRFSS","Obesity / Weight Status","Obesity / Weight Status","Percent of adults aged 18 years and older who have obesity †","","","VALUE","Value","26.1","","","22.5","29.9","1,054","21.304850435000446","-157.85774940299973","OWS","OWS1","Q036","","Income","INC","$50,000 - $74,999","INC5075","","","","","","","","","15","","","",""
"61227","2018","2018","2018","ID","Idaho","BRFSS","Obesity / Weight Status","Obesity / Weight Status","Percent of adults aged 18 years and older who have obesity †","","","VALUE","Value","28.9","","","23.9","34.4","554","43.682630005000476","-114.3637300419997","OWS","OWS1","Q036","","Income","INC","$50,000 - $74,999","INC5075","","","","","","","","","16","","","",""
"61254","2018","2018","2018","IL","Illinois","BRFSS","Obesity / Weight Status","Obesity / Weight Status","Percent of adults aged 18 years and older who have obesity †","","","VALUE","Value","32.8","","","28.6","37.2","701","40.48501028300046","-88.99771017799969","OWS","OWS1","Q036","","Income","INC","$50,000 - $74,999","INC5075","","","","","","","","","17","","","",""
"61281","2018","2018","2018","IN","Indiana","BRFSS","Obesity / Weight Status","Obesity / Weight Status","Percent of adults aged 18 years and older who have obesity †","","","VALUE","Value","37.1","","","33.3","41.1","967","39.766910452000445","-86.14996019399968","OWS","OWS1","Q036","","Income","INC","$50,000 - $74,999","INC5075","","","","","","","","","18","","","",""
"61953","2018","2018","2018","IA","Iowa","BRFSS","Obesity / Weight Status","Obesity / Weight Status","Percent of adults aged 18 years and older who have obesity †","","","VALUE","Value","36.1","","","33.3","39.0","1,396","42.46940091300047","-93.81649055599968","OWS","OWS1","Q036","","Income","INC","$50,000 - $74,999","INC5075","","","","","","","","","19","","","",""
"61980","2018","2018","2018","KS","Kansas","BRFSS","Obesity / Weight Status","Obesity / Weight Status","Percent of adults aged 18 years and older who have obesity †","","","VALUE","Value","37.1","","","34.0","40.2","1,529","38.34774030000045","-98.20078122699965","OWS","OWS1","Q036","","Income","INC","$50,000 - $74,999","INC5075","","","","","","","","","20","","","",""
"62007","2018","2018","2018","KY","Kentucky","BRFSS","Obesity / Weight Status","Obesity / Weight Status","Percent of adults aged 18 years and older who have obesity †","","","VALUE","Value","39.8","","","35.1","44.8","1,107","37.645970271000465","-84.77497104799966","OWS","OWS1","Q036","","Income","INC","$50,000 - $74,999","INC5075","","","","","","","","","21","","","",""
"62217","2018","2018","2018","LA","Louisiana","BRFSS","Obesity / Weight Status","Obesity / Weight Status","Percent of adults aged 18 years and older who have obesity †","","","VALUE","Value","39.6","","","34.6","44.8","579","31.31266064400046","-92.44568007099969","OWS","OWS1","Q036","","Income","INC","$50,000 - $74,999","INC5075","","","","","","","","","22","","","",""
"62244","2018","2018","2018","ME","Maine","BRFSS","Obesity / Weight Status","Obesity / Weight Status","Percent of adults aged 18 years and older who have obesity †","","","VALUE","Value","30.2","","","26.7","34.1","1,527","45.254228894000505","-68.98503133599962","OWS","OWS1","Q036","","Income","INC","$50,000 - $74,999","INC5075","","","","","","","","","23","","","",""
"62271","2018","2018","2018","MD","Maryland","BRFSS","Obesity / Weight Status","Obesity / Weight Status","Percent of adults aged 18 years and older who have obesity †","","","VALUE","Value","30.0","","","27.1","33.0","2,136","39.29058096400047","-76.60926011099963","OWS","OWS1","Q036","","Income","INC","$50,000 - $74,999","INC5075","","","","","","","","","24","","","",""
"62439","2018","2018","2018","MA","Massachusetts","BRFSS","Obesity / Weight Status","Obesity / Weight Status","Percent of adults aged 18 years and older who have obesity †","","","VALUE","Value","26.9","","","23.1","31.2","751","42.27687047000046","-72.08269067499964","OWS","OWS1","Q036","","Income","INC","$50,000 - $74,999","INC5075","","","","","","","","","25","","","",""
"62466","2018","2018","2018","MI","Michigan","BRFSS","Obesity / Weight Status","Obesity / Weight Status","Percent of adults aged 18 years and older who have obesity †","","","VALUE","Value","33.3","","","30.2","36.6","1,356","44.6613195430005","-84.71439026999968","OWS","OWS1","Q036","","Income","INC","$50,000 - $74,999","INC5075","","","","","","","","","26","","","",""
"62493","2018","2018","2018","MN","Minnesota","BRFSS","Obesity / Weight Status","Obesity / Weight Status","Percent of adults aged 18 years and older who have obesity †","","","VALUE","Value","31.8","","","29.6","34.1","2,448","46.35564873600049","-94.79420050299967","OWS","OWS1","Q036","","Income","INC","$50,000 - $74,999","INC5075","","","","","","","","","27","","","",""
"62520","2018","2018","2018","MS","Mississippi","BRFSS","Obesity / Weight Status","Obesity / Weight Status","Percent of adults aged 18 years and older who have obesity †","","","VALUE","Value","39.9","","","34.6","45.4","552","32.745510099000455","-89.53803082499968","OWS","OWS1","Q036","","Income","INC","$50,000 - $74,999","INC5075","","","","","","","","","28","","","",""
"62927","2018","2018","2018","MO","Missouri","BRFSS","Obesity / Weight Status","Obesity / Weight Status","Percent of adults aged 18 years and older who have obesity †","","","VALUE","Value","37.6","","","32.9","42.5","792","38.635790776000476","-92.56630005299968","OWS","OWS1","Q036","","Income","INC","$50,000 - $74,999","INC5075","","","","","","","","","29","","","",""
"62954","2018","2018","2018","MT","Montana","BRFSS","Obesity / Weight Status","Obesity / Weight Status","Percent of adults aged 18 years and older who have obesity †","","","VALUE","Value","30.0","","","25.8","34.5","717","47.06652897200047","-109.42442064499971","OWS","OWS1","Q036","","Income","INC","$50,000 - $74,999","INC5075","","","","","","","","","30","","","",""
"62981","2018","2018","2018","NE","Nebraska","BRFSS","Obesity / Weight Status","Obesity / Weight Status","Percent of adults aged 18 years and older who have obesity †","","","VALUE","Value","36.9","","","34.0","40.0","2,183","41.6410409880005","-99.36572062299967","OWS","OWS1","Q036","","Income","INC","$50,000 - $74,999","INC5075","","","","","","","","","31","","","",""
"63008","2018","2018","2018","NV","Nevada","BRFSS","Obesity / Weight Status","Obesity / Weight Status","Percent of adults aged 18 years and older who have obesity †","","","VALUE","Value","31.5","","","24.9","39.0","432","39.493240390000494","-117.07184056399967","OWS","OWS1","Q036","","Income","INC","$50,000 - $74,999","INC5075","","","","","","","","","32","","","",""
"62559","2018","2018","2018","NH","New Hampshire","BRFSS","Obesity / Weight Status","Obesity / Weight Status","Percent of adults aged 18 years and older who have obesity †","","","VALUE","Value","28.3","","","24.1","33.0","762","43.65595011300047","-71.50036091999965","OWS","OWS1","Q036","","Income","INC","$50,000 - $74,999","INC5075","","","","","","","","","33","","","",""
"62586","2018","2018","2018","NJ","New Jersey","BRFSS","Obesity / Weight Status","Obesity / Weight Status","Percent of adults aged 18 years and older who have obesity †","","","VALUE","Value","29.2","","","21.9","37.8","352","40.13057004800049","-74.27369128799967","OWS","OWS1","Q036","","Income","INC","$50,000 - $74,999","INC5075","","","","","","","","","34","","","",""
"62613","2018","2018","2018","NM","New Mexico","BRFSS","Obesity / Weight Status","Obesity / Weight Status","Percent of adults aged 18 years and older who have obesity †","","","VALUE","Value","36.2","","","31.4","41.4","795","34.52088095200048","-106.24058098499967","OWS","OWS1","Q036","","Income","INC","$50,000 - $74,999","INC5075","","","","","","","","","35","","","",""
"62119","2018","2018","2018","NY","New York","BRFSS","Obesity / Weight Status","Obesity / Weight Status","Percent of adults aged 18 years and older who have obesity †","","","VALUE","Value","30.5","","","27.9","33.2","4,191","42.82700103200045","-75.54397042699964","OWS","OWS1","Q036","","Income","INC","$50,000 - $74,999","INC5075","","","","","","","","","36","","","",""
"62146","2018","2018","2018","NC","North Carolina","BRFSS","Obesity / Weight Status","Obesity / Weight Status","Percent of adults aged 18 years and older who have obesity †","","","VALUE","Value","35.3","","","30.5","40.4","600","35.466220975000454","-79.15925046299964","OWS","OWS1","Q036","","Income","INC","$50,000 - $74,999","INC5075","","","","","","","","","37","","","",""
"62173","2018","2018","2018","ND","North Dakota","BRFSS","Obesity / Weight Status","Obesity / Weight Status","Percent of adults aged 18 years and older who have obesity †","","","VALUE","Value","36.2","","","31.8","40.8","826","47.47531977900047","-100.11842104899966","OWS","OWS1","Q036","","Income","INC","$50,000 - $74,999","INC5075","","","","","","","","","38","","","",""
"62200","2018","2018","2018","OH","Ohio","BRFSS","Obesity / Weight Status","Obesity / Weight Status","Percent of adults aged 18 years and older who have obesity †","","","VALUE","Value","36.5","","","33.2","40.0","1,638","40.06021014100048","-82.40426005599966","OWS","OWS1","Q036","","Income","INC","$50,000 - $74,999","INC5075","","","","","","","","","39","","","",""
"62323","2018","2018","2018","OK","Oklahoma","BRFSS","Obesity / Weight Status","Obesity / Weight Status","Percent of adults aged 18 years and older who have obesity †","","","VALUE","Value","34.6","","","30.5","38.9","768","35.47203135600046","-97.52107021399968","OWS","OWS1","Q036","","Income","INC","$50,000 - $74,999","INC5075","","","","","","","","","40","","","",""
"62350","2018","2018","2018","OR","Oregon","BRFSS","Obesity / Weight Status","Obesity / Weight Status","Percent of adults aged 18 years and older who have obesity †","","","VALUE","Value","32.7","","","29.0","36.6","766","44.56744942400047","-120.15503132599969","OWS","OWS1","Q036","","Income","INC","$50,000 - $74,999","INC5075","","","","","","","","","41","","","",""
"62377","2018","2018","2018","PA","Pennsylvania","BRFSS","Obesity / Weight Status","Obesity / Weight Status","Percent of adults aged 18 years and older who have obesity †","","","VALUE","Value","32.5","","","28.3","37.0","799","40.79373015200048","-77.86070029399963","OWS","OWS1","Q036","","Income","INC","$50,000 - $74,999","INC5075","","","","","","","","","42","","","",""
"62639","2018","2018","2018","RI","Rhode Island","BRFSS","Obesity / Weight Status","Obesity / Weight Status","Percent of adults aged 18 years and older who have obesity †","","","VALUE","Value","23.7","","","19.6","28.3","661","41.70828019300046","-71.52247031399963","OWS","OWS1","Q036","","Income","INC","$50,000 - $74,999","INC5075","","","","","","","","","44","","","",""
"62666","2018","2018","2018","SC","South Carolina","BRFSS","Obesity / Weight Status","Obesity / Weight Status","Percent of adults aged 18 years and older who have obesity †","","","VALUE","Value","35.0","","","31.5","38.7","1,372","33.998821303000454","-81.04537120699968","OWS","OWS1","Q036","","Income","INC","$50,000 - $74,999","INC5075","","","","","","","","","45","","","",""
"62693","2018","2018","2018","SD","South Dakota","BRFSS","Obesity / Weight Status","Obesity / Weight Status","Percent of adults aged 18 years and older who have obesity †","","","VALUE","Value","29.2","","","24.5","34.5","992","44.353130053000484","-100.3735306369997","OWS","OWS1","Q036","","Income","INC","$50,000 - $74,999","INC5075","","","","","","","","","46","","","",""
"62720","2018","2018","2018","TN","Tennessee","BRFSS","Obesity / Weight Status","Obesity / Weight Status","Percent of adults aged 18 years and older who have obesity †","","","VALUE","Value","39.3","","","34.1","44.8","608","35.68094058000048","-85.77449091399967","OWS","OWS1","Q036","","Income","INC","$50,000 - $74,999","INC5075","","","","","","","","","47","","","",""
"62747","2018","2018","2018","TX","Texas","BRFSS","Obesity / Weight Status","Obesity / Weight Status","Percent of adults aged 18 years and older who have obesity †","","","VALUE","Value","40.4","","","35.1","45.9","1,300","31.827240407000488","-99.42677020599967","OWS","OWS1","Q036","","Income","INC","$50,000 - $74,999","INC5075","","","","","","","","","48","","","",""
"62774","2018","2018","2018","UT","Utah","BRFSS","Obesity / Weight Status","Obesity / Weight Status","Percent of adults aged 18 years and older who have obesity †","","","VALUE","Value","30.3","","","27.6","33.2","1,637","39.360700171000474","-111.58713063499971","OWS","OWS1","Q036","","Income","INC","$50,000 - $74,999","INC5075","","","","","","","","","49","","","",""
"62801","2018","2018","2018","VT","Vermont","BRFSS","Obesity / Weight Status","Obesity / Weight Status","Percent of adults aged 18 years and older who have obesity †","","","VALUE","Value","32.0","","","27.9","36.4","976","43.62538123900049","-72.51764079099962","OWS","OWS1","Q036","","Income","INC","$50,000 - $74,999","INC5075","","","","","","","","","50","","","",""
"62828","2018","2018","2018","VA","Virginia","BRFSS","Obesity / Weight Status","Obesity / Weight Status","Percent of adults aged 18 years and older who have obesity †","","","VALUE","Value","35.9","","","32.2","39.8","1,258","37.54268067400045","-78.45789046299967","OWS","OWS1","Q036","","Income","INC","$50,000 - $74,999","INC5075","","","","","","","","","51","","","",""
"62855","2018","2018","2018","WA","Washington","BRFSS","Obesity / Weight Status","Obesity / Weight Status","Percent of adults aged 18 years and older who have obesity †","","","VALUE","Value","32.6","","","29.7","35.7","1,767","47.52227862900048","-120.47001078999972","OWS","OWS1","Q036","","Income","INC","$50,000 - $74,999","INC5075","","","","","","","","","53","","","",""
"62882","2018","2018","2018","WV","West Virginia","BRFSS","Obesity / Weight Status","Obesity / Weight Status","Percent of adults aged 18 years and older who have obesity †","","","VALUE","Value","40.0","","","35.1","45.0","551","38.66551020200046","-80.71264013499967","OWS","OWS1","Q036","","Income","INC","$50,000 - $74,999","INC5075","","","","","","","","","54","","","",""
"62909","2018","2018","2018","WI","Wisconsin","BRFSS","Obesity / Weight Status","Obesity / Weight Status","Percent of adults aged 18 years and older who have obesity †","","","VALUE","Value","34.8","","","30.5","39.3","783","44.39319117400049","-89.81637074199966","OWS","OWS1","Q036","","Income","INC","$50,000 - $74,999","INC5075","","","","","","","","","55","","","",""
"63032","2018","2018","2018","WY","Wyoming","BRFSS","Obesity / Weight Status","Obesity / Weight Status","Percent of adults aged 18 years and older who have obesity †","","","VALUE","Value","31.7","","","27.5","36.3","684","43.23554134300048","-108.10983035299967","OWS","OWS1","Q036","","Income","INC","$50,000 - $74,999","INC5075","","","","","","","","","56","","","",""
"63059","2018","2018","2018","GU","Guam","BRFSS","Obesity / Weight Status","Obesity / Weight Status","Percent of adults aged 18 years and older who have obesity †","","","VALUE","Value","31.7","","","23.8","40.8","204","13.444304","144.793731","OWS","OWS1","Q036","","Income","INC","$50,000 - $74,999","INC5075","","","","","","","","","66","","","",""
"63086","2018","2018","2018","PR","Puerto Rico","BRFSS","Obesity / Weight Status","Obesity / Weight Status","Percent of adults aged 18 years and older who have obesity †","","","VALUE","Value","32.6","","","24.9","41.2","170","18.220833","-66.590149","OWS","OWS1","Q036","","Income","INC","$50,000 - $74,999","INC5075","","","","","","","","","72","","","",""
"62400","2018","2018","2018","VI","Virgin Islands","BRFSS","Obesity / Weight Status","Obesity / Weight Status","Percent of adults aged 18 years and older who have obesity †","","","VALUE","Value","~","~","Data not available because sample size is insufficient.","~","","~","18.335765","-64.896335","OWS","OWS1","Q036","","Income","INC","$50,000 - $74,999","INC5075","","","","","","","","","78","","","",""
"","","","","","","","","","","","","","","","","","","","","","","","","","","","","","","","","","","","","","","","~","Data not available because sample size is insufficient.","","Footnote"
"","","","","","","","","","","","","","","","","","","","","","","","","","","","","","","","","","","","","","","","†","Obesity is defined as body mass index (BMI) =30.0; BMI was calculated from self-reported weight and height (weight [kg]/ height [m²). Respondents reporting weight< 50 pounds or =650 pounds; height< 3 feet or =8 feet; or BMI:<12 or =100 were excluded. Pregnant respondents were also excluded.","","Footnote"
"","","","","","","","","","","","","","","","","","","","","","","","","","","","","","","","","","","","","","","","","Behavioral Risk Factor Surveillance System (BRFSS) - http://www.cdc.gov/brfss/","https://www.cdc.gov/brfss/","Data Source"
"","","","","","","","","","","","","","","","","","","","","","","","","","","","","","","","","","","","","","","","","Centers for Disease Control and Prevention. National Center for Chronic Disease Prevention and Health Promotion, Division of Nutrition, Physical Activity, and Obesity. Data, Trend and Maps [online].","/nccdphp/dnpao/data-trends-maps/index.html","Suggested Citation"
"","","","","","","","","","","","","","","","","","","","","","","","","","","","","","","","","","","","","","","","","Breastfeeding","/breastfeeding/index.htm","Related Links"
"","","","","","","","","","","","","","","","","","","","","","","","","","","","","","","","","","","","","","","","","Division of Nutrition, Physical Activity, and Obesity","/nccdphp/dnpao/index.html","Related Links"
"","","","","","","","","","","","","","","","","","","","","","","","","","","","","","","","","","","","","","","","","Physical Activity","/physicalactivity/index.html","Related Links"
"","","","","","","","","","","","","","","","","","","","","","","","","","","","","","","","","","","","","","","","","Chronic Disease Prevention and Health Promotion","/chronicdisease/index.htm","Related Links"
"","","","","","","","","","","","","","","","","","","","","","","","","","","","","","","","","","","","","","","","","Overweight and Obesity","/obesity/index.html","Related Links"
"","","","","","","","","","","","","","","","","","","","","","","","","","","","","","","","","","","","","","","","","State and Local Programs","/nccdphp/dnpao/state-local-programs/index.html","Related Links"
