"ID","YearStart","YearEnd","Description","LocationAbbr","LocationDesc","DataSource","Class","Topic","Question","Response","Data_Value_Unit","DataValueTypeId","Data_Value_Type","Data_Value","Data_Value_Footnote_Symbol","Data_Value_Footnote","Low_Confidence_Limit","High_Confidence_Limit","Sample_Size","GeoLocation_Lat","GeoLocation_Long","ClassId","TopicId","QuestionId","ResponseId","StratficationCategory1","StratificationCategoryId1","Stratification1","StratificationId1","StratificationCategory2","StratificationCategoryId2","Stratification2","StratificationId2","StratificationCategory3","StratificationCategoryId3","Stratification3","StratificationId3","LocationDisplayOrder","FootnoteSymbol","FootnoteText","URL","FootnoteHeading"
"61107","2018","2018","2018","US","National","BRFSS","Obesity / Weight Status","Obesity / Weight Status","Percent of adults aged 18 years and older who have obesity †","","","VALUE","Value","35.6","","","34.7","36.5","52,704","","","OWS","OWS1","Q036","","Income","INC","$15,000 - $24,999","INC1525","","","","","","","","","0","","","",""
"61187","2018","2018","2018","AL","Alabama","BRFSS","Obesity / Weight Status","Obesity / Weight Status","Percent of adults aged 18 years and older who have obesity †","","","VALUE","Value","38.4","","","34.2","42.8","937","32.84057112200048","-86.63186076199969","OWS","OWS1","Q036","","Income","INC","$15,000 - $24,999","INC1525","","","","","","","","","1","","","",""
"61763","2018","2018","2018","AK","Alaska","BRFSS","Obesity / Weight Status","Obesity / Weight Status","Percent of adults aged 18 years and older who have obesity †","","","VALUE","Value","25.2","","","18.7","32.9","292","64.84507995700051","-147.72205903599973","OWS","OWS1","Q036","","Income","INC","$15,000 - $24,999","INC1525","","","","","","","","","2","","","",""
"61790","2018","2018","2018","AZ","Arizona","BRFSS","Obesity / Weight Status","Obesity / Weight Status","Percent of adults aged 18 years and older who have obesity †","","","VALUE","Value","35.1","","","30.5","40.1","1,141","34.865970280000454","-111.76381127699972","OWS","OWS1","Q036","","Income","INC","$15,000 - $24,999","INC1525","","","","","","","","","4","","","",""
"61817","2018","2018","2018","AR","Arkansas","BRFSS","Obesity / Weight Status","Obesity / Weight Status","Percent of adults aged 18 years and older who have obesity †","","","VALUE","Value","37.3","","","32.7","42.2","903","34.74865012400045","-92.27449074299966","OWS","OWS1","Q036","","Income","INC","$15,000 - $24,999","INC1525","","","","","","","","","5","","","",""
"61844","2018","2018","2018","CA","California","BRFSS","Obesity / Weight Status","Obesity / Weight Status","Percent of adults aged 18 years and older who have obesity †","","","VALUE","Value","32.0","","","28.8","35.3","1,223","37.63864012300047","-120.99999953799971","OWS","OWS1","Q036","","Income","INC","$15,000 - $24,999","INC1525","","","","","","","","","6","","","",""
"61591","2018","2018","2018","CO","Colorado","BRFSS","Obesity / Weight Status","Obesity / Weight Status","Percent of adults aged 18 years and older who have obesity †","","","VALUE","Value","28.4","","","25.0","32.1","892","38.843840757000464","-106.13361092099967","OWS","OWS1","Q036","","Income","INC","$15,000 - $24,999","INC1525","","","","","","","","","8","","","",""
"61618","2018","2018","2018","CT","Connecticut","BRFSS","Obesity / Weight Status","Obesity / Weight Status","Percent of adults aged 18 years and older who have obesity †","","","VALUE","Value","29.9","","","26.1","33.9","963","41.56266102000046","-72.64984095199964","OWS","OWS1","Q036","","Income","INC","$15,000 - $24,999","INC1525","","","","","","","","","9","","","",""
"61645","2018","2018","2018","DE","Delaware","BRFSS","Obesity / Weight Status","Obesity / Weight Status","Percent of adults aged 18 years and older who have obesity †","","","VALUE","Value","37.4","","","32.7","42.4","688","39.008830667000495","-75.57774116799965","OWS","OWS1","Q036","","Income","INC","$15,000 - $24,999","INC1525","","","","","","","","","10","","","",""
"61856","2018","2018","2018","DC","District of Columbia","BRFSS","Obesity / Weight Status","Obesity / Weight Status","Percent of adults aged 18 years and older who have obesity †","","","VALUE","Value","36.1","","","30.1","42.5","427","38.89037138500049","-77.03196112699965","OWS","OWS1","Q036","","Income","INC","$15,000 - $24,999","INC1525","","","","","","","","","11","","","",""
"61883","2018","2018","2018","FL","Florida","BRFSS","Obesity / Weight Status","Obesity / Weight Status","Percent of adults aged 18 years and older who have obesity †","","","VALUE","Value","36.1","","","32.1","40.2","2,422","28.932040377000476","-81.92896053899966","OWS","OWS1","Q036","","Income","INC","$15,000 - $24,999","INC1525","","","","","","","","","12","","","",""
"61910","2018","2018","2018","GA","Georgia","BRFSS","Obesity / Weight Status","Obesity / Weight Status","Percent of adults aged 18 years and older who have obesity †","","","VALUE","Value","35.6","","","32.2","39.0","1,228","32.83968109300048","-83.62758034599966","OWS","OWS1","Q036","","Income","INC","$15,000 - $24,999","INC1525","","","","","","","","","13","","","",""
"61937","2018","2018","2018","HI","Hawaii","BRFSS","Obesity / Weight Status","Obesity / Weight Status","Percent of adults aged 18 years and older who have obesity †","","","VALUE","Value","28.7","","","25.0","32.8","1,022","21.304850435000446","-157.85774940299973","OWS","OWS1","Q036","","Income","INC","$15,000 - $24,999","INC1525","","","","","","","","","15","","","",""
"61224","2018","2018","2018","ID","Idaho","BRFSS","Obesity / Weight Status","Obesity / Weight Status","Percent of adults aged 18 years and older who have obesity †","","","VALUE","Value","32.9","","","27.3","39.0","500","43.682630005000476","-114.3637300419997","OWS","OWS1","Q036","","Income","INC","$15,000 - $24,999","INC1525","","","","","","","","","16","","","",""
"61251","2018","2018","2018","IL","Illinois","BRFSS","Obesity / Weight Status","Obesity / Weight Status","Percent of adults aged 18 years and older who have obesity †","","","VALUE","Value","39.6","","","35.2","44.1","693","40.48501028300046","-88.99771017799969","OWS","OWS1","Q036","","Income","INC","$15,000 - $24,999","INC1525","","","","","","","","","17","","","",""
"61278","2018","2018","2018","IN","Indiana","BRFSS","Obesity / Weight Status","Obesity / Weight Status","Percent of adults aged 18 years and older who have obesity †","","","VALUE","Value","37.4","","","33.4","41.5","960","39.766910452000445","-86.14996019399968","OWS","OWS1","Q036","","Income","INC","$15,000 - $24,999","INC1525","","","","","","","","","18","","","",""
"61950","2018","2018","2018","IA","Iowa","BRFSS","Obesity / Weight Status","Obesity / Weight Status","Percent of adults aged 18 years and older who have obesity †","","","VALUE","Value","41.0","","","37.6","44.6","1,056","42.46940091300047","-93.81649055599968","OWS","OWS1","Q036","","Income","INC","$15,000 - $24,999","INC1525","","","","","","","","","19","","","",""
"61977","2018","2018","2018","KS","Kansas","BRFSS","Obesity / Weight Status","Obesity / Weight Status","Percent of adults aged 18 years and older who have obesity †","","","VALUE","Value","38.3","","","34.7","42.0","1,213","38.34774030000045","-98.20078122699965","OWS","OWS1","Q036","","Income","INC","$15,000 - $24,999","INC1525","","","","","","","","","20","","","",""
"62004","2018","2018","2018","KY","Kentucky","BRFSS","Obesity / Weight Status","Obesity / Weight Status","Percent of adults aged 18 years and older who have obesity †","","","VALUE","Value","41.3","","","36.4","46.3","1,074","37.645970271000465","-84.77497104799966","OWS","OWS1","Q036","","Income","INC","$15,000 - $24,999","INC1525","","","","","","","","","21","","","",""
"62214","2018","2018","2018","LA","Louisiana","BRFSS","Obesity / Weight Status","Obesity / Weight Status","Percent of adults aged 18 years and older who have obesity †","","","VALUE","Value","41.5","","","36.7","46.3","734","31.31266064400046","-92.44568007099969","OWS","OWS1","Q036","","Income","INC","$15,000 - $24,999","INC1525","","","","","","","","","22","","","",""
"62241","2018","2018","2018","ME","Maine","BRFSS","Obesity / Weight Status","Obesity / Weight Status","Percent of adults aged 18 years and older who have obesity †","","","VALUE","Value","35.4","","","31.3","39.7","1,363","45.254228894000505","-68.98503133599962","OWS","OWS1","Q036","","Income","INC","$15,000 - $24,999","INC1525","","","","","","","","","23","","","",""
"62268","2018","2018","2018","MD","Maryland","BRFSS","Obesity / Weight Status","Obesity / Weight Status","Percent of adults aged 18 years and older who have obesity †","","","VALUE","Value","35.2","","","31.5","39.2","1,559","39.29058096400047","-76.60926011099963","OWS","OWS1","Q036","","Income","INC","$15,000 - $24,999","INC1525","","","","","","","","","24","","","",""
"62295","2018","2018","2018","MA","Massachusetts","BRFSS","Obesity / Weight Status","Obesity / Weight Status","Percent of adults aged 18 years and older who have obesity †","","","VALUE","Value","32.5","","","26.8","38.7","493","42.27687047000046","-72.08269067499964","OWS","OWS1","Q036","","Income","INC","$15,000 - $24,999","INC1525","","","","","","","","","25","","","",""
"62463","2018","2018","2018","MI","Michigan","BRFSS","Obesity / Weight Status","Obesity / Weight Status","Percent of adults aged 18 years and older who have obesity †","","","VALUE","Value","40.1","","","36.5","43.8","1,197","44.6613195430005","-84.71439026999968","OWS","OWS1","Q036","","Income","INC","$15,000 - $24,999","INC1525","","","","","","","","","26","","","",""
"62490","2018","2018","2018","MN","Minnesota","BRFSS","Obesity / Weight Status","Obesity / Weight Status","Percent of adults aged 18 years and older who have obesity †","","","VALUE","Value","32.6","","","29.9","35.4","1,681","46.35564873600049","-94.79420050299967","OWS","OWS1","Q036","","Income","INC","$15,000 - $24,999","INC1525","","","","","","","","","27","","","",""
"62517","2018","2018","2018","MS","Mississippi","BRFSS","Obesity / Weight Status","Obesity / Weight Status","Percent of adults aged 18 years and older who have obesity †","","","VALUE","Value","44.0","","","40.0","48.1","1,099","32.745510099000455","-89.53803082499968","OWS","OWS1","Q036","","Income","INC","$15,000 - $24,999","INC1525","","","","","","","","","28","","","",""
"62924","2018","2018","2018","MO","Missouri","BRFSS","Obesity / Weight Status","Obesity / Weight Status","Percent of adults aged 18 years and older who have obesity †","","","VALUE","Value","36.7","","","32.0","41.8","827","38.635790776000476","-92.56630005299968","OWS","OWS1","Q036","","Income","INC","$15,000 - $24,999","INC1525","","","","","","","","","29","","","",""
"62951","2018","2018","2018","MT","Montana","BRFSS","Obesity / Weight Status","Obesity / Weight Status","Percent of adults aged 18 years and older who have obesity †","","","VALUE","Value","26.5","","","22.1","31.3","689","47.06652897200047","-109.42442064499971","OWS","OWS1","Q036","","Income","INC","$15,000 - $24,999","INC1525","","","","","","","","","30","","","",""
"62978","2018","2018","2018","NE","Nebraska","BRFSS","Obesity / Weight Status","Obesity / Weight Status","Percent of adults aged 18 years and older who have obesity †","","","VALUE","Value","38.8","","","35.5","42.3","1,911","41.6410409880005","-99.36572062299967","OWS","OWS1","Q036","","Income","INC","$15,000 - $24,999","INC1525","","","","","","","","","31","","","",""
"63005","2018","2018","2018","NV","Nevada","BRFSS","Obesity / Weight Status","Obesity / Weight Status","Percent of adults aged 18 years and older who have obesity †","","","VALUE","Value","27.9","","","21.9","34.8","377","39.493240390000494","-117.07184056399967","OWS","OWS1","Q036","","Income","INC","$15,000 - $24,999","INC1525","","","","","","","","","32","","","",""
"62556","2018","2018","2018","NH","New Hampshire","BRFSS","Obesity / Weight Status","Obesity / Weight Status","Percent of adults aged 18 years and older who have obesity †","","","VALUE","Value","39.0","","","33.1","45.3","604","43.65595011300047","-71.50036091999965","OWS","OWS1","Q036","","Income","INC","$15,000 - $24,999","INC1525","","","","","","","","","33","","","",""
"62583","2018","2018","2018","NJ","New Jersey","BRFSS","Obesity / Weight Status","Obesity / Weight Status","Percent of adults aged 18 years and older who have obesity †","","","VALUE","Value","31.8","","","24.6","40.0","314","40.13057004800049","-74.27369128799967","OWS","OWS1","Q036","","Income","INC","$15,000 - $24,999","INC1525","","","","","","","","","34","","","",""
"62610","2018","2018","2018","NM","New Mexico","BRFSS","Obesity / Weight Status","Obesity / Weight Status","Percent of adults aged 18 years and older who have obesity †","","","VALUE","Value","38.0","","","34.2","42.1","1,160","34.52088095200048","-106.24058098499967","OWS","OWS1","Q036","","Income","INC","$15,000 - $24,999","INC1525","","","","","","","","","35","","","",""
"62116","2018","2018","2018","NY","New York","BRFSS","Obesity / Weight Status","Obesity / Weight Status","Percent of adults aged 18 years and older who have obesity †","","","VALUE","Value","30.7","","","28.2","33.3","4,506","42.82700103200045","-75.54397042699964","OWS","OWS1","Q036","","Income","INC","$15,000 - $24,999","INC1525","","","","","","","","","36","","","",""
"62143","2018","2018","2018","NC","North Carolina","BRFSS","Obesity / Weight Status","Obesity / Weight Status","Percent of adults aged 18 years and older who have obesity †","","","VALUE","Value","35.0","","","30.5","39.8","641","35.466220975000454","-79.15925046299964","OWS","OWS1","Q036","","Income","INC","$15,000 - $24,999","INC1525","","","","","","","","","37","","","",""
"62170","2018","2018","2018","ND","North Dakota","BRFSS","Obesity / Weight Status","Obesity / Weight Status","Percent of adults aged 18 years and older who have obesity †","","","VALUE","Value","38.1","","","32.2","44.3","596","47.47531977900047","-100.11842104899966","OWS","OWS1","Q036","","Income","INC","$15,000 - $24,999","INC1525","","","","","","","","","38","","","",""
"62197","2018","2018","2018","OH","Ohio","BRFSS","Obesity / Weight Status","Obesity / Weight Status","Percent of adults aged 18 years and older who have obesity †","","","VALUE","Value","38.2","","","34.7","41.8","1,965","40.06021014100048","-82.40426005599966","OWS","OWS1","Q036","","Income","INC","$15,000 - $24,999","INC1525","","","","","","","","","39","","","",""
"62320","2018","2018","2018","OK","Oklahoma","BRFSS","Obesity / Weight Status","Obesity / Weight Status","Percent of adults aged 18 years and older who have obesity †","","","VALUE","Value","38.3","","","33.7","43.1","724","35.47203135600046","-97.52107021399968","OWS","OWS1","Q036","","Income","INC","$15,000 - $24,999","INC1525","","","","","","","","","40","","","",""
"62347","2018","2018","2018","OR","Oregon","BRFSS","Obesity / Weight Status","Obesity / Weight Status","Percent of adults aged 18 years and older who have obesity †","","","VALUE","Value","33.7","","","29.6","38.1","731","44.56744942400047","-120.15503132599969","OWS","OWS1","Q036","","Income","INC","$15,000 - $24,999","INC1525","","","","","","","","","41","","","",""
"62374","2018","2018","2018","PA","Pennsylvania","BRFSS","Obesity / Weight Status","Obesity / Weight Status","Percent of adults aged 18 years and older who have obesity †","","","VALUE","Value","32.1","","","27.9","36.6","722","40.79373015200048","-77.86070029399963","OWS","OWS1","Q036","","Income","INC","$15,000 - $24,999","INC1525","","","","","","","","","42","","","",""
"62636","2018","2018","2018","RI","Rhode Island","BRFSS","Obesity / Weight Status","Obesity / Weight Status","Percent of adults aged 18 years and older who have obesity †","","","VALUE","Value","32.0","","","27.2","37.2","661","41.70828019300046","-71.52247031399963","OWS","OWS1","Q036","","Income","INC","$15,000 - $24,999","INC1525","","","","","","","","","44","","","",""
"62663","2018","2018","2018","SC","South Carolina","BRFSS","Obesity / Weight Status","Obesity / Weight Status","Percent of adults aged 18 years and older who have obesity †","","","VALUE","Value","39.2","","","35.7","42.8","1,561","33.998821303000454","-81.04537120699968","OWS","OWS1","Q036","","Income","INC","$15,000 - $24,999","INC1525","","","","","","","","","45","","","",""
"62690","2018","2018","2018","SD","South Dakota","BRFSS","Obesity / Weight Status","Obesity / Weight Status","Percent of adults aged 18 years and older who have obesity †","","","VALUE","Value","34.5","","","28.1","41.5","738","44.353130053000484","-100.3735306369997","OWS","OWS1","Q036","","Income","INC","$15,000 - $24,999","INC1525","","","","","","","","","46","","","",""
"62717","2018","2018","2018","TN","Tennessee","BRFSS","Obesity / Weight Status","Obesity / Weight Status","Percent of adults aged 18 years and older who have obesity †","","","VALUE","Value","38.1","","","33.3","43.2","772","35.68094058000048","-85.77449091399967","OWS","OWS1","Q036","","Income","INC","$15,000 - $24,999","INC1525","","","","","","","","","47","","","",""
"62744","2018","2018","2018","TX","Texas","BRFSS","Obesity / Weight Status","Obesity / Weight Status","Percent of adults aged 18 years and older who have obesity †","","","VALUE","Value","38.1","","","32.7","43.8","1,415","31.827240407000488","-99.42677020599967","OWS","OWS1","Q036","","Income","INC","$15,000 - $24,999","INC1525","","","","","","","","","48","","","",""
"62771","2018","2018","2018","UT","Utah","BRFSS","Obesity / Weight Status","Obesity / Weight Status","Percent of adults aged 18 years and older who have obesity †","","","VALUE","Value","29.7","","","26.2","33.4","897","39.360700171000474","-111.58713063499971","OWS","OWS1","Q036","","Income","INC","$15,000 - $24,999","INC1525","","","","","","","","","49","","","",""
"62798","2018","2018","2018","VT","Vermont","BRFSS","Obesity / Weight Status","Obesity / Weight Status","Percent of adults aged 18 years and older who have obesity †","","","VALUE","Value","31.6","","","27.2","36.3","724","43.62538123900049","-72.51764079099962","OWS","OWS1","Q036","","Income","INC","$15,000 - $24,999","INC1525","","","","","","","","","50","","","",""
"62825","2018","2018","2018","VA","Virginia","BRFSS","Obesity / Weight Status","Obesity / Weight Status","Percent of adults aged 18 years and older who have obesity †","","","VALUE","Value","38.6","","","34.8","42.5","1,138","37.54268067400045","-78.45789046299967","OWS","OWS1","Q036","","Income","INC","$15,000 - $24,999","INC1525","","","","","","","","","51","","","",""
"62852","2018","2018","2018","WA","Washington","BRFSS","Obesity / Weight Status","Obesity / Weight Status","Percent of adults aged 18 years and older who have obesity †","","","VALUE","Value","30.6","","","27.4","34.0","1,293","47.52227862900048","-120.47001078999972","OWS","OWS1","Q036","","Income","INC","$15,000 - $24,999","INC1525","","","","","","","","","53","","","",""
"62879","2018","2018","2018","WV","West Virginia","BRFSS","Obesity / Weight Status","Obesity / Weight Status","Percent of adults aged 18 years and older who have obesity †","","","VALUE","Value","42.5","","","38.3","46.7","794","38.66551020200046","-80.71264013499967","OWS","OWS1","Q036","","Income","INC","$15,000 - $24,999","INC1525","","","","","","","","","54","","","",""
"62906","2018","2018","2018","WI","Wisconsin","BRFSS","Obesity / Weight Status","Obesity / Weight Status","Percent of adults aged 18 years and older who have obesity †","","","VALUE","Value","35.2","","","30.0","40.8","594","44.39319117400049","-89.81637074199966","OWS","OWS1","Q036","","Income","INC","$15,000 - $24,999","INC1525","","","","","","","","","55","","","",""
"63029","2018","2018","2018","WY","Wyoming","BRFSS","Obesity / Weight Status","Obesity / Weight Status","Percent of adults aged 18 years and older who have obesity †","","","VALUE","Value","30.9","","","26.3","36.0","590","43.23554134300048","-108.10983035299967","OWS","OWS1","Q036","","Income","INC","$15,000 - $24,999","INC1525","","","","","","","","","56","","","",""
"63056","2018","2018","2018","GU","Guam","BRFSS","Obesity / Weight Status","Obesity / Weight Status","Percent of adults aged 18 years and older who have obesity †","","","VALUE","Value","31.5","","","23.7","40.4","239","13.444304","144.793731","OWS","OWS1","Q036","","Income","INC","$15,000 - $24,999","INC1525","","","","","","","","","66","","","",""
"63083","2018","2018","2018","PR","Puerto Rico","BRFSS","Obesity / Weight Status","Obesity / Weight Status","Percent of adults aged 18 years and older who have obesity †","","","VALUE","Value","33.2","","","30.0","36.6","1,244","18.220833","-66.590149","OWS","OWS1","Q036","","Income","INC","$15,000 - $24,999","INC1525","","","","","","","","","72","","","",""
"62397","2018","2018","2018","VI","Virgin Islands","BRFSS","Obesity / Weight Status","Obesity / Weight Status","Percent of adults aged 18 years and older who have obesity †","","","VALUE","Value","~","~","Data not available because sample size is insufficient.","~","","~","18.335765","-64.896335","OWS","OWS1","Q036","","Income","INC","$15,000 - $24,999","INC1525","","","","","","","","","78","","","",""
"","","","","","","","","","","","","","","","","","","","","","","","","","","","","","","","","","","","","","","","~","Data not available because sample size is insufficient.","","Footnote"
"","","","","","","","","","","","","","","","","","","","","","","","","","","","","","","","","","","","","","","","†","Obesity is defined as body mass index (BMI) =30.0; BMI was calculated from self-reported weight and height (weight [kg]/ height [m²). Respondents reporting weight< 50 pounds or =650 pounds; height< 3 feet or =8 feet; or BMI:<12 or =100 were excluded. Pregnant respondents were also excluded.","","Footnote"
"","","","","","","","","","","","","","","","","","","","","","","","","","","","","","","","","","","","","","","","","Behavioral Risk Factor Surveillance System (BRFSS) - http://www.cdc.gov/brfss/","https://www.cdc.gov/brfss/","Data Source"
"","","","","","","","","","","","","","","","","","","","","","","","","","","","","","","","","","","","","","","","","Centers for Disease Control and Prevention. National Center for Chronic Disease Prevention and Health Promotion, Division of Nutrition, Physical Activity, and Obesity. Data, Trend and Maps [online].","/nccdphp/dnpao/data-trends-maps/index.html","Suggested Citation"
"","","","","","","","","","","","","","","","","","","","","","","","","","","","","","","","","","","","","","","","","Breastfeeding","/breastfeeding/index.htm","Related Links"
"","","","","","","","","","","","","","","","","","","","","","","","","","","","","","","","","","","","","","","","","Division of Nutrition, Physical Activity, and Obesity","/nccdphp/dnpao/index.html","Related Links"
"","","","","","","","","","","","","","","","","","","","","","","","","","","","","","","","","","","","","","","","","Physical Activity","/physicalactivity/index.html","Related Links"
"","","","","","","","","","","","","","","","","","","","","","","","","","","","","","","","","","","","","","","","","Chronic Disease Prevention and Health Promotion","/chronicdisease/index.htm","Related Links"
"","","","","","","","","","","","","","","","","","","","","","","","","","","","","","","","","","","","","","","","","Overweight and Obesity","/obesity/index.html","Related Links"
"","","","","","","","","","","","","","","","","","","","","","","","","","","","","","","","","","","","","","","","","State and Local Programs","/nccdphp/dnpao/state-local-programs/index.html","Related Links"
